[{"name": "Luna Playground", "lat": 40.57606, "lng": -73.978922}, {"name": "Marine Park", "lat": 40.58947, "lng": -73.921023}, {"name": "Owl's Head Park", "lat": 40.640323, "lng": -74.034849}, {"name": "Bartlett Playground", "lat": 40.700852, "lng": -73.946395}, {"name": "Bath Beach Park", "lat": 40.602585, "lng": -74.010973}, {"name": "Seeley Park", "lat": 40.653439, "lng": -73.978038}, {"name": "Ruppert Park", "lat": 40.780842, "lng": -73.949783}, {"name": "Tudor Park", "lat": 40.673695, "lng": -73.855534}, {"name": "Forest Park", "lat": 40.700544, "lng": -73.855575}, {"name": "John Jay Park", "lat": 40.769719, "lng": -73.948837}, {"name": "Peters Field", "lat": 40.706591, "lng": -73.774676}, {"name": "Playground of the Americas", "lat": 40.72807, "lng": -74.002756}, {"name": "Bill Brown Playground", "lat": 40.591761, "lng": -73.945596}, {"name": "Commodore Barry Park", "lat": 40.697127, "lng": -73.978467}, {"name": "Coney Island Beach & Boardwalk", "lat": 40.575402, "lng": -73.956085}, {"name": "Jacob H. Schiff Playground", "lat": 40.821058, "lng": -73.952357}, {"name": "Francis Lewis Park", "lat": 40.796277, "lng": -73.824508}, {"name": "Curtis Playground", "lat": 40.64075, "lng": -73.917476}, {"name": "St. Catherine's Park", "lat": 40.765049, "lng": -73.958912}, {"name": "Central Park", "lat": 40.775604, "lng": -73.965477}, {"name": "Clark Playground", "lat": 40.813657, "lng": -73.921181}, {"name": "Bronx River Parkway", "lat": 40.872945, "lng": -73.871056}, {"name": "Little Bay Park", "lat": 40.790517, "lng": -73.781968}, {"name": "Corlears Hook Park", "lat": 40.711203, "lng": -73.980381}, {"name": "John V. Lindsay East River Park", "lat": 40.711614, "lng": -73.977452}, {"name": "Red Hook Recreation Area", "lat": 40.672382, "lng": -74.004045}, {"name": "John V. Lindsay East River Park", "lat": 40.724404, "lng": -73.972254}, {"name": "Flushing Meadows Corona Park", "lat": 40.750843, "lng": -73.834568}, {"name": "Imagination Playground", "lat": 40.706186, "lng": -74.003964}, {"name": "Park Of The Americas", "lat": 40.748531, "lng": -73.861709}, {"name": "Silver Lake Park", "lat": 40.631161, "lng": -74.095617}, {"name": "Parade Ground", "lat": 40.651257, "lng": -73.968994}, {"name": "Schmul Park", "lat": 40.589705, "lng": -74.187095}, {"name": "Spring Creek Park", "lat": 40.648982, "lng": -73.872999}, {"name": "Van Cortlandt Park", "lat": 40.906941, "lng": -73.896}, {"name": "City Line Park", "lat": 40.678681, "lng": -73.873952}, {"name": "Freshkills Park", "lat": 40.561302, "lng": -74.197247}, {"name": "Beach 30th Street Playground", "lat": 40.592593, "lng": -73.76172}, {"name": "Bushwick Inlet Park", "lat": 40.722273, "lng": -73.961833}, {"name": "Cambria Playground", "lat": 40.688558, "lng": -73.742434}, {"name": "Central Park", "lat": 40.797062, "lng": -73.951457}, {"name": "Fort Greene Park", "lat": 40.692342, "lng": -73.977257}, {"name": "100% Playground", "lat": 40.64654, "lng": -73.899378}, {"name": "Washington Square Park", "lat": 40.730831, "lng": -73.998309}, {"name": "John V. Lindsay East River Park", "lat": 40.716436, "lng": -73.975261}, {"name": "Lost Battalion Hall Recreation Center", "lat": 40.731804, "lng": -73.865513}, {"name": "Harvey Park", "lat": 40.782792, "lng": -73.823747}, {"name": "Van Voorhees Playground", "lat": 40.689641, "lng": -73.999524}, {"name": "Sol Bloom Playground", "lat": 40.789408, "lng": -73.968933}, {"name": "Slope Park Playground", "lat": 40.661317, "lng": -73.989317}, {"name": "Nathan Straus Playground", "lat": 40.719415, "lng": -73.984217}, {"name": "Flushing Meadows Corona Park", "lat": 40.747709, "lng": -73.839266}, {"name": "Central Park", "lat": 40.777559, "lng": -73.965109}, {"name": "Inwood Hill Park", "lat": 40.871456, "lng": -73.921498}, {"name": "Rev. T. Wendell Foster Park and Recreation Center", "lat": 40.831793, "lng": -73.925245}, {"name": "Brigadier General Charles Young Playground", "lat": 40.819451, "lng": -73.936372}, {"name": "Highbridge Park", "lat": 40.842149, "lng": -73.933874}, {"name": "Prall Playground", "lat": 40.628408, "lng": -74.118117}, {"name": "Grover Cleveland Playground", "lat": 40.710143, "lng": -73.911111}, {"name": "Barretto Point Park", "lat": 40.804642, "lng": -73.888913}, {"name": "Tudor Park", "lat": 40.67328, "lng": -73.8547}, {"name": "Crowley Playground", "lat": 40.729329, "lng": -73.879805}, {"name": "Riverside Park", "lat": 40.809902, "lng": -73.966922}, {"name": "Jackie Robinson Park", "lat": 40.825868, "lng": -73.941328}, {"name": "Owl's Head Park", "lat": 40.639385, "lng": -74.030824}, {"name": "Fort Totten Park", "lat": 40.795569, "lng": -73.777991}, {"name": "Petrosino Square", "lat": 40.721641, "lng": -73.997447}, {"name": "Greenwood Playground", "lat": 40.649622, "lng": -73.976077}, {"name": "Hunts Point Playground", "lat": 40.814141, "lng": -73.886224}, {"name": "Forest Park", "lat": 40.702593, "lng": -73.86787}, {"name": "Franklin D. Roosevelt Boardwalk and Beach", "lat": 40.569316, "lng": -74.089498}, {"name": "Haffen Park", "lat": 40.873925, "lng": -73.838901}, {"name": "Marcus Garvey Park", "lat": 40.80449, "lng": -73.944907}, {"name": "Beach 17 Playground", "lat": 40.594116, "lng": -73.750353}, {"name": "Metropolitan Recreation Center", "lat": 40.715012, "lng": -73.960317}, {"name": "Manhattan Beach Park", "lat": 40.576573, "lng": -73.945431}, {"name": "Dyker Beach Park", "lat": 40.612726, "lng": -74.013}, {"name": "Long Island Mews", "lat": 40.736067, "lng": -73.890293}, {"name": "St. Mary's Park", "lat": 40.813833, "lng": -73.912943}, {"name": "Bronx Park", "lat": 40.853046, "lng": -73.870565}, {"name": "Prospect Park", "lat": 40.665075, "lng": -73.972108}, {"name": "Parade Ground", "lat": 40.651334, "lng": -73.969383}, {"name": "Central Park", "lat": 40.779426, "lng": -73.968706}, {"name": "The High Line", "lat": 40.739815, "lng": -74.008281}, {"name": "White Playground", "lat": 40.791519, "lng": -73.945878}, {"name": "Haggerty Park", "lat": 40.713024, "lng": -73.758066}, {"name": "Battery Park City", "lat": 40.711958, "lng": -74.016869}, {"name": "Commodore Barry Park", "lat": 40.69753, "lng": -73.977796}, {"name": "Thomas Jefferson Park", "lat": 40.793642, "lng": -73.93678}, {"name": "Franklin D. Roosevelt Boardwalk and Beach", "lat": 40.592438, "lng": -74.063012}, {"name": "Stroud Playground", "lat": 40.675099, "lng": -73.961835}, {"name": "Bill Rainey Park", "lat": 40.819476, "lng": -73.896673}, {"name": "Macombs Dam Park", "lat": 40.827188, "lng": -73.930328}, {"name": "Hunter's Point South Park", "lat": 40.738498, "lng": -73.961154}, {"name": "Coney Island Beach & Boardwalk", "lat": 40.574003, "lng": -73.971464}, {"name": "Morningside Park", "lat": 40.802982, "lng": -73.95877}, {"name": "Alley Pond Park", "lat": 40.741693, "lng": -73.747246}, {"name": "Lillian D Wald Playground", "lat": 40.712181, "lng": -73.984403}, {"name": "Matthew P. Sapolin Playground", "lat": 40.777679, "lng": -73.984144}, {"name": "Martin Luther Playground", "lat": 40.645681, "lng": -74.019901}, {"name": "Mount Prospect Park", "lat": 40.671549, "lng": -73.967219}, {"name": "Fort Washington Park", "lat": 40.838964, "lng": -73.94603}, {"name": "McLaughlin Park", "lat": 40.696515, "lng": -73.985935}, {"name": "Vleigh Playground", "lat": 40.729795, "lng": -73.816277}, {"name": "Bronx River Parkway", "lat": 40.890777, "lng": -73.864041}, {"name": "Battery Park City", "lat": 40.716622, "lng": -74.014126}, {"name": "Rockaway Beach Boardwalk", "lat": 40.586627, "lng": -73.799844}, {"name": "Asser Levy Park", "lat": 40.574324, "lng": -73.972227}, {"name": "Canarsie Park", "lat": 40.629163, "lng": -73.8952}, {"name": "Central Park", "lat": 40.777631, "lng": -73.963971}, {"name": "Corporal John A. Seravalli Playground", "lat": 40.73922, "lng": -74.004559}, {"name": "McCarren Park", "lat": 40.720081, "lng": -73.94993}, {"name": "College Point Fields", "lat": 40.777231, "lng": -73.838107}, {"name": "Tiger Playground", "lat": 40.688071, "lng": -73.911169}, {"name": "Coney Island Beach & Boardwalk", "lat": 40.572705, "lng": -73.982906}, {"name": "Central Park", "lat": 40.765452, "lng": -73.974956}, {"name": "Brevoort Playground", "lat": 40.680142, "lng": -73.922566}, {"name": "Flushing Meadows Corona Park", "lat": 40.74455, "lng": -73.839873}, {"name": "Kissena Park", "lat": 40.746109, "lng": -73.812066}, {"name": "Dean Playground", "lat": 40.680706, "lng": -73.973397}, {"name": "Asser Levy Playground", "lat": 40.736683, "lng": -73.975355}, {"name": "Thomas Jefferson Park", "lat": 40.79377, "lng": -73.936551}, {"name": "Asser Levy Playground", "lat": 40.736143, "lng": -73.975668}, {"name": "Coney Island Boat Basin", "lat": 40.581742, "lng": -73.991207}, {"name": "Jacob Joffe Fields", "lat": 40.624952, "lng": -73.919569}, {"name": "Van Alst Playground", "lat": 40.770481, "lng": -73.928313}, {"name": "Parade Ground", "lat": 40.649093, "lng": -73.969617}, {"name": "Kaiser Park", "lat": 40.578427, "lng": -73.995012}, {"name": "Central Park", "lat": 40.773037, "lng": -73.974391}, {"name": "Forest Park", "lat": 40.696026, "lng": -73.866434}, {"name": "Sophie Irene Loeb", "lat": 40.713259, "lng": -73.994251}, {"name": "Stebbins Playground", "lat": 40.822696, "lng": -73.898619}, {"name": "Gravesend Park", "lat": 40.623562, "lng": -73.984336}, {"name": "Astoria Park", "lat": 40.780245, "lng": -73.922083}, {"name": "Hoffman Park", "lat": 40.732939, "lng": -73.871681}, {"name": "General Hart Playground", "lat": 40.748753, "lng": -73.897259}, {"name": "Bronx Park", "lat": 40.860447, "lng": -73.871509}, {"name": "Wingate Park", "lat": 40.658987, "lng": -73.944346}, {"name": "Dimattina Playground", "lat": 40.680702, "lng": -74.002071}, {"name": "Hamilton Fish Park", "lat": 40.719657, "lng": -73.980181}, {"name": "Magenta Playground", "lat": 40.8735, "lng": -73.867988}, {"name": "Marine Park", "lat": 40.607861, "lng": -73.937449}, {"name": "Russell Pedersen Playground", "lat": 40.626417, "lng": -74.036221}, {"name": "Evergreen Playground", "lat": 40.686062, "lng": -73.910844}, {"name": "John V. Lindsay East River Park", "lat": 40.718351, "lng": -73.974564}, {"name": "Cunningham Park", "lat": 40.72735, "lng": -73.774286}, {"name": "Bush Terminal Park", "lat": 40.651657, "lng": -74.020543}, {"name": "Pelham Bay Park", "lat": 40.847124, "lng": -73.825707}, {"name": "Van Voorhees Playground", "lat": 40.689908, "lng": -73.999721}, {"name": "Elmhurst Park", "lat": 40.730303, "lng": -73.885151}, {"name": "Bowne Park", "lat": 40.770557, "lng": -73.807743}, {"name": "Winthrop Playground", "lat": 40.65653, "lng": -73.954529}, {"name": "Arsenal West", "lat": 40.769783, "lng": -73.982919}, {"name": "Lyons Pool", "lat": 40.637213, "lng": -74.074571}, {"name": "Austin J. McDonald Playground", "lat": 40.62956, "lng": -74.115587}, {"name": "Crocheron Park", "lat": 40.770981, "lng": -73.771549}, {"name": "Seaside Playground", "lat": 40.580348, "lng": -73.831359}, {"name": "The Battery", "lat": 40.701505, "lng": -74.012686}, {"name": "Devoe Park", "lat": 40.863292, "lng": -73.907021}, {"name": "Breukelen Ballfields", "lat": 40.653955, "lng": -73.893614}, {"name": "Lott Park", "lat": 40.648058, "lng": -73.954111}, {"name": "Thomas J. Cuite Park", "lat": 40.654259, "lng": -73.978761}, {"name": "Mathews-Palmer Playground", "lat": 40.761178, "lng": -73.992734}, {"name": "Abraham Lincoln Playground", "lat": 40.812412, "lng": -73.937275}, {"name": "Rockaway Beach", "lat": 40.577827, "lng": -73.835484}, {"name": "Forest Park", "lat": 40.698396, "lng": -73.858391}, {"name": "Ocean Breeze Park", "lat": 40.583077, "lng": -74.075188}, {"name": "Prospect Park", "lat": 40.6704, "lng": -73.96915}, {"name": "Williamsbridge Square", "lat": 40.877145, "lng": -73.86669}, {"name": "Riverside Park", "lat": 40.787196, "lng": -73.98194}, {"name": "Watson Gleason Playground", "lat": 40.827803, "lng": -73.868781}, {"name": "Pelham Bay Park", "lat": 40.867784, "lng": -73.792974}, {"name": "Harris Park", "lat": 40.876281, "lng": -73.890625}, {"name": "Alley Pond Park", "lat": 40.758769, "lng": -73.754008}, {"name": "Kissena Corridor Park", "lat": 40.743093, "lng": -73.782566}, {"name": "Flushing Meadows Corona Park", "lat": 40.746214, "lng": -73.850461}, {"name": "Central Park", "lat": 40.789427, "lng": -73.961891}, {"name": "Reiff Playground", "lat": 40.718836, "lng": -73.902063}, {"name": "Alley Pond Park", "lat": 40.74267, "lng": -73.738739}, {"name": "Willets Point Playground", "lat": 40.783791, "lng": -73.79646}, {"name": "CPL. Thompson Park", "lat": 40.636896, "lng": -74.11939}, {"name": "Prall Playground", "lat": 40.628399, "lng": -74.118506}, {"name": "Stockton Playground", "lat": 40.697117, "lng": -73.948645}, {"name": "Soundview Park", "lat": 40.817351, "lng": -73.878081}, {"name": "Broad Channel Park", "lat": 40.600463, "lng": -73.819972}, {"name": "Detective Keith L Williams Park", "lat": 40.703887, "lng": -73.785331}, {"name": "Rockaway Beach", "lat": 40.578604, "lng": -73.833127}, {"name": "Willowbrook Parkway", "lat": 40.588369, "lng": -74.139097}, {"name": "Rockaway Beach Boardwalk", "lat": 40.580556, "lng": -73.826116}, {"name": "Potomac Playground", "lat": 40.682089, "lng": -73.944319}, {"name": "Flushing Meadows Corona Park", "lat": 40.746282, "lng": -73.850436}, {"name": "Bowne Playground", "lat": 40.758245, "lng": -73.824701}, {"name": "Wakefield Playground", "lat": 40.901919, "lng": -73.854383}, {"name": "Jennifer's Playground", "lat": 40.619782, "lng": -74.163057}, {"name": "Roy Wilkins Recreation Center", "lat": 40.686545, "lng": -73.769764}, {"name": "Louis Armstrong Playground", "lat": 40.754894, "lng": -73.855186}, {"name": "Claremont Park", "lat": 40.83863, "lng": -73.907671}, {"name": "Tappen Park", "lat": 40.627047, "lng": -74.076212}, {"name": "Fort Greene Park", "lat": 40.692504, "lng": -73.977003}, {"name": "Midland Field", "lat": 40.576675, "lng": -74.098502}, {"name": "Playground Eighty Nine LXXXIX", "lat": 40.788779, "lng": -73.971891}, {"name": "Rufus King Park", "lat": 40.703293, "lng": -73.803552}, {"name": "Central Park", "lat": 40.79104, "lng": -73.964372}, {"name": "Terrace Playground", "lat": 40.613543, "lng": -74.098317}, {"name": "Central Park", "lat": 40.784956, "lng": -73.966716}, {"name": "Prospect Park", "lat": 40.655153, "lng": -73.972886}, {"name": "Flushing Meadows Corona Park", "lat": 40.750359, "lng": -73.836672}, {"name": "Brookville Park", "lat": 40.661051, "lng": -73.746379}, {"name": "Flushing Meadows Corona Park", "lat": 40.748064, "lng": -73.84141}, {"name": "Sara D. Roosevelt Park", "lat": 40.716851, "lng": -73.994166}, {"name": "Canarsie Park", "lat": 40.629818, "lng": -73.892913}, {"name": "Forest Park", "lat": 40.702564, "lng": -73.868051}, {"name": "Devoe Park", "lat": 40.863677, "lng": -73.904918}, {"name": "Lafayette Gardens Playground", "lat": 40.689463, "lng": -73.957437}, {"name": "Detective Keith L Williams Park", "lat": 40.701849, "lng": -73.784222}, {"name": "Gravesend Park", "lat": 40.623886, "lng": -73.984007}, {"name": "Bensonhurst Park", "lat": 40.597751, "lng": -74.001169}, {"name": "Carter G. Woodson Children's Park", "lat": 40.668294, "lng": -73.905954}, {"name": "The Battery", "lat": 40.702895, "lng": -74.01676}, {"name": "Thomas Jefferson Park", "lat": 40.793236, "lng": -73.936294}, {"name": "Riverside Park South", "lat": 40.779809, "lng": -73.988511}, {"name": "Poppenhusen Playground", "lat": 40.781479, "lng": -73.844705}, {"name": "Central Park", "lat": 40.791163, "lng": -73.95941}, {"name": "Evelina Antonetty Playground", "lat": 40.817398, "lng": -73.928335}, {"name": "Brownsville Playground", "lat": 40.65676, "lng": -73.901675}, {"name": "Gonzalo Plasencia Playground", "lat": 40.652395, "lng": -74.008365}, {"name": "Linden Park", "lat": 40.65892, "lng": -73.886107}, {"name": "Bush Terminal Park", "lat": 40.65333, "lng": -74.019899}, {"name": "Central Park", "lat": 40.790758, "lng": -73.95951}, {"name": "Washington Park", "lat": 40.672622, "lng": -73.984417}, {"name": "Frederick B. Judge Playground", "lat": 40.6831, "lng": -73.807801}, {"name": "Coney Island Beach & Boardwalk", "lat": 40.574614, "lng": -73.969217}, {"name": "Park Of The Americas", "lat": 40.748754, "lng": -73.861797}, {"name": "De Witt Clinton Park", "lat": 40.768197, "lng": -73.994636}, {"name": "Mill Pond Park", "lat": 40.822161, "lng": -73.931228}, {"name": "Hoffman Park", "lat": 40.732444, "lng": -73.872638}, {"name": "Flushing Meadows Corona Park", "lat": 40.751761, "lng": -73.837424}, {"name": "Randall's Island Park", "lat": 40.799256, "lng": -73.92302}, {"name": "Sternberg Park", "lat": 40.705659, "lng": -73.947371}, {"name": "Playground One Twenty Five CXXV", "lat": 40.810481, "lng": -73.954868}, {"name": "Forest Park", "lat": 40.700963, "lng": -73.842865}, {"name": "St. John's Park", "lat": 40.673861, "lng": -73.934891}, {"name": "Howard Playground", "lat": 40.671709, "lng": -73.90784}, {"name": "Sara D. Roosevelt Park", "lat": 40.720424, "lng": -73.992258}, {"name": "Kelly Park Playground", "lat": 40.603935, "lng": -73.957927}, {"name": "Bloomingdale Park", "lat": 40.535206, "lng": -74.208734}, {"name": "Brooklyn Botanic Garden", "lat": 40.663816, "lng": -73.962233}, {"name": "Bushwick Playground", "lat": 40.701813, "lng": -73.939361}, {"name": "Nathan Weidenbaum Playground", "lat": 40.7382, "lng": -73.902095}, {"name": "Ethan Allen Playground", "lat": 40.655755, "lng": -73.886564}, {"name": "Central Park", "lat": 40.771759, "lng": -73.976831}, {"name": "Galileo Playground", "lat": 40.848652, "lng": -73.915813}, {"name": "Columbus Park", "lat": 40.71562, "lng": -73.999775}, {"name": "Canarsie Park", "lat": 40.628961, "lng": -73.895972}, {"name": "Tecumseh Playground", "lat": 40.781945, "lng": -73.978515}, {"name": "Bella Abzug Park", "lat": 40.75542, "lng": -74.00062}, {"name": "Astoria Health Playground", "lat": 40.767846, "lng": -73.932568}, {"name": "Prospect Park", "lat": 40.663617, "lng": -73.974039}, {"name": "Al Qui\u00f1ones Playground", "lat": 40.815129, "lng": -73.901709}, {"name": "Willowbrook Park", "lat": 40.60577, "lng": -74.15663}, {"name": "Daniel M. O'Connell Playground", "lat": 40.700226, "lng": -73.75813}, {"name": "Farm Playground", "lat": 40.735156, "lng": -73.777394}, {"name": "Wards Island Park", "lat": 40.782997, "lng": -73.930725}, {"name": "Bill Rainey Park", "lat": 40.818457, "lng": -73.897988}, {"name": "Lawrence Virgilio Playground", "lat": 40.747358, "lng": -73.910192}, {"name": "Franklin D. Roosevelt Boardwalk and Beach", "lat": 40.572963, "lng": -74.085011}, {"name": "John J Carty Park", "lat": 40.614538, "lng": -74.029355}, {"name": "John J Carty Park", "lat": 40.61499, "lng": -74.028853}, {"name": "William Sheridan Playground", "lat": 40.715106, "lng": -73.964332}, {"name": "St. Vartan Park", "lat": 40.745147, "lng": -73.97332}, {"name": "Benjamin Gladstone Square", "lat": 40.825363, "lng": -73.890894}, {"name": "Franklin D. Roosevelt Boardwalk and Beach", "lat": 40.569143, "lng": -74.090368}, {"name": "Playground Eighty LXXX", "lat": 40.745072, "lng": -73.709531}, {"name": "Rock Garden Park", "lat": 40.835189, "lng": -73.885283}, {"name": "Dr. Green Playground", "lat": 40.667171, "lng": -73.907069}, {"name": "Lyons Pool", "lat": 40.637536, "lng": -74.074754}, {"name": "Rockaway Beach and Boardwalk", "lat": 40.589041, "lng": -73.788514}, {"name": "Flushing Meadows Corona Park", "lat": 40.760084, "lng": -73.853742}, {"name": "Carver Playground", "lat": 40.680266, "lng": -73.920889}, {"name": "St. John's Park", "lat": 40.674695, "lng": -73.935913}, {"name": "Flushing Meadows Corona Park", "lat": 40.746346, "lng": -73.838554}, {"name": "Sheltering Arms Playground", "lat": 40.815156, "lng": -73.955682}, {"name": "Van Cortlandt Park", "lat": 40.885189, "lng": -73.890683}, {"name": "Rockaway Beach Boardwalk", "lat": 40.584894, "lng": -73.809281}, {"name": "Mabel Hampton Playground", "lat": 40.854631, "lng": -73.903863}, {"name": "Van Cortlandt Park", "lat": 40.891078, "lng": -73.893038}, {"name": "Greene Playground", "lat": 40.686583, "lng": -73.965783}, {"name": "Half-Nelson Playground", "lat": 40.846521, "lng": -73.91946}, {"name": "Queensbridge Park", "lat": 40.755686, "lng": -73.948392}, {"name": "Central Park", "lat": 40.791992, "lng": -73.955816}, {"name": "Rochdale Park", "lat": 40.674234, "lng": -73.774268}, {"name": "Spirit Playground", "lat": 40.761277, "lng": -73.941723}, {"name": "Glen Oaks Oval", "lat": 40.749714, "lng": -73.715113}, {"name": "Forest Park", "lat": 40.700404, "lng": -73.857881}, {"name": "Randall's Island Park", "lat": 40.793247, "lng": -73.924232}, {"name": "Kaiser Park", "lat": 40.578363, "lng": -73.996753}, {"name": "Cherry Tree Park", "lat": 40.787398, "lng": -73.946833}, {"name": "Rory Staunton Field", "lat": 40.754193, "lng": -73.88811}, {"name": "Bildersee Playground", "lat": 40.635795, "lng": -73.911644}, {"name": "Riverside Park", "lat": 40.804387, "lng": -73.96913}, {"name": "Prospect Park", "lat": 40.665559, "lng": -73.971572}, {"name": "John V. Lindsay East River Park", "lat": 40.722837, "lng": -73.973094}, {"name": "Aqueduct Walk", "lat": 40.85729, "lng": -73.908851}, {"name": "Floyd Patterson Ballfields", "lat": 40.660452, "lng": -73.904064}, {"name": "Recreational Area", "lat": 40.829431, "lng": -73.952353}, {"name": "Flushing Fields", "lat": 40.774971, "lng": -73.817045}, {"name": "Wolfe's Pond Park", "lat": 40.518972, "lng": -74.187552}, {"name": "Marcy Playground", "lat": 40.695665, "lng": -73.949727}, {"name": "Jackson Square", "lat": 40.738859, "lng": -74.003048}, {"name": "Tompkins Square Park", "lat": 40.726389, "lng": -73.980986}, {"name": "Randall's Island Park", "lat": 40.792949, "lng": -73.918751}, {"name": "Ehrenreich-Austin Playground", "lat": 40.715449, "lng": -73.836826}, {"name": "Milestone Park", "lat": 40.609533, "lng": -73.999523}, {"name": "St. Mary's Park", "lat": 40.811468, "lng": -73.914103}, {"name": "Shore Park and Parkway", "lat": 40.611941, "lng": -74.03558}, {"name": "Estella Diggs Park", "lat": 40.829068, "lng": -73.906467}, {"name": "Colonel David Marcus Playground", "lat": 40.610272, "lng": -73.968359}, {"name": "Central Park", "lat": 40.770004, "lng": -73.972596}, {"name": "Fountain Of Youth Playground", "lat": 40.813693, "lng": -73.905266}, {"name": "Henry M. Jackson Playground", "lat": 40.714123, "lng": -73.981042}, {"name": "Brookfield Park", "lat": 40.561886, "lng": -74.160949}, {"name": "Constance Baker Motley Recreation Center", "lat": 40.756481, "lng": -73.96513}, {"name": "Kolbert Playground", "lat": 40.620091, "lng": -73.958296}, {"name": "Bayview Playground", "lat": 40.634553, "lng": -73.887194}, {"name": "Baisley Pond Park", "lat": 40.674181, "lng": -73.787735}, {"name": "Bayside Fields", "lat": 40.772932, "lng": -73.784942}, {"name": "Riverside Park", "lat": 40.781146, "lng": -73.985925}, {"name": "Morris Mesa", "lat": 40.845261, "lng": -73.909559}, {"name": "John V. Lindsay East River Park", "lat": 40.713736, "lng": -73.975729}, {"name": "Fort Totten Park", "lat": 40.794143, "lng": -73.778098}, {"name": "Flushing Meadows Corona Park", "lat": 40.762264, "lng": -73.859267}, {"name": "Flushing Meadows Corona Park", "lat": 40.74125, "lng": -73.848883}, {"name": "Hines Park", "lat": 40.828922, "lng": -73.905373}, {"name": "Gravesend Park", "lat": 40.623501, "lng": -73.985399}, {"name": "Marine Park", "lat": 40.608243, "lng": -73.93711}, {"name": "Flushing Meadows Corona Park", "lat": 40.745551, "lng": -73.844298}, {"name": "Simeone Park", "lat": 40.740804, "lng": -73.85956}, {"name": "Highbridge Park", "lat": 40.843458, "lng": -73.933023}, {"name": "Fisher Pool", "lat": 40.758451, "lng": -73.869459}, {"name": "Electric Playground", "lat": 40.736231, "lng": -73.805207}, {"name": "Shore Park and Parkway", "lat": 40.632574, "lng": -74.038987}, {"name": "Crotona Park", "lat": 40.840503, "lng": -73.897757}, {"name": "Prospect Park", "lat": 40.660498, "lng": -73.963555}, {"name": "Flushing Meadows Corona Park", "lat": 40.744599, "lng": -73.839999}, {"name": "Bronx Park", "lat": 40.847141, "lng": -73.870393}, {"name": "Prospect Park", "lat": 40.665555, "lng": -73.974951}, {"name": "Franklin D. Roosevelt Boardwalk and Beach", "lat": 40.578083, "lng": -74.077593}, {"name": "Bleecker Playground", "lat": 40.736352, "lng": -74.005614}, {"name": "St. John's Park", "lat": 40.6737, "lng": -73.933882}, {"name": "Frank Principe Park", "lat": 40.727333, "lng": -73.904654}, {"name": "Central Park", "lat": 40.792974, "lng": -73.954133}, {"name": "Carl Schurz Park", "lat": 40.773548, "lng": -73.944992}, {"name": "De Witt Clinton Park", "lat": 40.768521, "lng": -73.993684}, {"name": "McCarren Park", "lat": 40.720933, "lng": -73.95011}, {"name": "Prospect Park", "lat": 40.66556, "lng": -73.971572}, {"name": "Bailey Playground", "lat": 40.881658, "lng": -73.900125}, {"name": "Bayswater Park", "lat": 40.599872, "lng": -73.767563}, {"name": "Pelham Bay Park", "lat": 40.84833, "lng": -73.824405}, {"name": "Coney Island Beach & Boardwalk", "lat": 40.572407, "lng": -73.986723}, {"name": "Hero Park", "lat": 40.630297, "lng": -74.087176}, {"name": "Hillside Playground", "lat": 40.740889, "lng": -73.712932}, {"name": "Hamilton Metz Field", "lat": 40.662603, "lng": -73.940709}, {"name": "Rockaway Beach Boardwalk", "lat": 40.583812, "lng": -73.81319}, {"name": "Hamilton Fish Park", "lat": 40.719979, "lng": -73.981457}, {"name": "Police Officer John G. Scarangella Park", "lat": 40.593845, "lng": -73.984179}, {"name": "Wingate Park", "lat": 40.659409, "lng": -73.94493}, {"name": "Gorman Playground", "lat": 40.761846, "lng": -73.884052}, {"name": "Fulton Park", "lat": 40.679937, "lng": -73.931687}, {"name": "Forest Park", "lat": 40.701621, "lng": -73.853329}, {"name": "Markham Playground", "lat": 40.624411, "lng": -74.145701}, {"name": "Cooper Park", "lat": 40.715795, "lng": -73.936355}, {"name": "Riverside Park", "lat": 40.783127, "lng": -73.985331}, {"name": "City Hall Park", "lat": 40.713511, "lng": -74.006472}, {"name": "Cleopatra Playground", "lat": 40.845565, "lng": -73.904131}, {"name": "GREENSTREET", "lat": 40.711776, "lng": -73.99227}, {"name": "Kissena Corridor Park", "lat": 40.749357, "lng": -73.822278}, {"name": "Parkside Playground", "lat": 40.868469, "lng": -73.867976}, {"name": "Astoria Park", "lat": 40.778529, "lng": -73.922167}, {"name": "Flushing Meadows Corona Park", "lat": 40.753535, "lng": -73.838006}, {"name": "Rainbow Playground", "lat": 40.640516, "lng": -74.011218}, {"name": "Freedom Square Playground", "lat": 40.723256, "lng": -73.820336}, {"name": "Idlewild Park", "lat": 40.657455, "lng": -73.758807}, {"name": "Pelham Bay Park", "lat": 40.868784, "lng": -73.792902}, {"name": "Dawson Playground", "lat": 40.819438, "lng": -73.898177}, {"name": "Clement Clarke Moore Park", "lat": 40.746618, "lng": -74.004105}, {"name": "Ferry Point Park", "lat": 40.82145, "lng": -73.826654}, {"name": "Tompkins Square Park", "lat": 40.725656, "lng": -73.981328}, {"name": "Baisley Pond Park", "lat": 40.67263, "lng": -73.787517}, {"name": "Alley Athletic Playground", "lat": 40.739757, "lng": -73.734966}, {"name": "Herbert Von King Park", "lat": 40.689812, "lng": -73.945706}, {"name": "Rodney Playground Center", "lat": 40.710169, "lng": -73.95557}, {"name": "Dongan Playground", "lat": 40.582895, "lng": -74.089837}, {"name": "Rockaway Beach Boardwalk", "lat": 40.584641, "lng": -73.810846}, {"name": "Riverbend Playground", "lat": 40.871998, "lng": -73.906}, {"name": "Evergreen Park", "lat": 40.698181, "lng": -73.896419}, {"name": "Cadman Plaza Park", "lat": 40.698911, "lng": -73.990902}, {"name": "Pulaski Park", "lat": 40.805159, "lng": -73.923963}, {"name": "Forest Park", "lat": 40.700822, "lng": -73.858115}, {"name": "Harold Schneiderman Playground", "lat": 40.665013, "lng": -73.85018}, {"name": "Wagner Houses Pool", "lat": 40.801662, "lng": -73.932764}, {"name": "Ditmars Playground", "lat": 40.771295, "lng": -73.907576}, {"name": "Prospect Park", "lat": 40.655488, "lng": -73.963393}, {"name": "CPL. Thompson Park", "lat": 40.636898, "lng": -74.119249}, {"name": "Brookville Park", "lat": 40.65731, "lng": -73.748126}, {"name": "Nostrand Playground", "lat": 40.6377, "lng": -73.947164}, {"name": "Junction Playground", "lat": 40.75455, "lng": -73.872228}, {"name": "Fish Playground", "lat": 40.678271, "lng": -73.914208}, {"name": "Prospect Park", "lat": 40.660702, "lng": -73.974789}, {"name": "Pierrepont Playground", "lat": 40.69632, "lng": -73.997639}, {"name": "Abingdon Square", "lat": 40.737461, "lng": -74.005217}, {"name": "Conference House Park", "lat": 40.50518, "lng": -74.254567}, {"name": "Grove Hill Playground", "lat": 40.819872, "lng": -73.90855}, {"name": "Maria Hernandez Park", "lat": 40.703148, "lng": -73.92412}, {"name": "Hoyt Playground", "lat": 40.77181, "lng": -73.916827}, {"name": "L/CPL Thomas P. Noonan Jr. Playground", "lat": 40.741043, "lng": -73.92249}, {"name": "Crotona Park", "lat": 40.840378, "lng": -73.898092}, {"name": "Randall's Island Park", "lat": 40.799147, "lng": -73.922689}, {"name": "Cunningham Park", "lat": 40.727239, "lng": -73.774163}, {"name": "Inwood Hill Park", "lat": 40.872545, "lng": -73.930189}, {"name": "Patterson Playground", "lat": 40.815966, "lng": -73.921926}, {"name": "Highbridge Park", "lat": 40.853208, "lng": -73.926661}, {"name": "Baisley Pond Park", "lat": 40.684861, "lng": -73.786519}, {"name": "St. Michael's Playground", "lat": 40.758712, "lng": -73.900129}, {"name": "Breininger Park", "lat": 40.725961, "lng": -73.728796}, {"name": "Veterans Grove", "lat": 40.742548, "lng": -73.877694}, {"name": "Maurice A FitzGerald Playground", "lat": 40.690377, "lng": -73.839391}, {"name": "Franklin D. Roosevelt Boardwalk and Beach", "lat": 40.578664, "lng": -74.074121}, {"name": "Poe Park", "lat": 40.865029, "lng": -73.894695}, {"name": "Dyker Beach Park", "lat": 40.61201, "lng": -74.015358}, {"name": "Cunningham Park", "lat": 40.735295, "lng": -73.771802}, {"name": "Van Cortlandt Park", "lat": 40.897084, "lng": -73.895507}, {"name": "James A. Bland Playground", "lat": 40.758185, "lng": -73.831172}, {"name": "Van Cortlandt Park", "lat": 40.889982, "lng": -73.881224}, {"name": "Sternberg Park", "lat": 40.705999, "lng": -73.947151}, {"name": "Henry Hudson Park", "lat": 40.882438, "lng": -73.918475}, {"name": "Hansborough Recreation Center", "lat": 40.812834, "lng": -73.939331}, {"name": "Brooklyn Bridge Park", "lat": 40.692898, "lng": -74.00171}, {"name": "Rockaway Beach and Boardwalk", "lat": 40.588479, "lng": -73.789675}, {"name": "Cunningham Park", "lat": 40.730325, "lng": -73.775521}, {"name": "Jackie Robinson Park", "lat": 40.827563, "lng": -73.940045}, {"name": "Alley Pond Park", "lat": 40.741939, "lng": -73.739955}, {"name": "Seton Park", "lat": 40.886385, "lng": -73.916455}, {"name": "Randall's Island Park", "lat": 40.792732, "lng": -73.915929}, {"name": "De Witt Clinton Park", "lat": 40.768274, "lng": -73.994699}, {"name": "Haffen Park", "lat": 40.874454, "lng": -73.838737}, {"name": "Bennett Park", "lat": 40.853154, "lng": -73.937946}, {"name": "Central Park", "lat": 40.76909, "lng": -73.980773}, {"name": "Isham Park", "lat": 40.871084, "lng": -73.919897}, {"name": "Prospect Park", "lat": 40.668019, "lng": -73.973774}, {"name": "Battery Park City", "lat": 40.710001, "lng": -74.01813}, {"name": "Riverside Park", "lat": 40.783153, "lng": -73.986792}, {"name": "Rappaport Playground", "lat": 40.636869, "lng": -74.000753}, {"name": "St. Nicholas Playground South", "lat": 40.811306, "lng": -73.947125}, {"name": "Flushing Meadows Corona Park", "lat": 40.739281, "lng": -73.841874}, {"name": "Jackie Robinson Park", "lat": 40.824269, "lng": -73.942448}, {"name": "Shore Park and Parkway", "lat": 40.631636, "lng": -74.039313}, {"name": "Central Park", "lat": 40.793687, "lng": -73.962362}, {"name": "Central Park", "lat": 40.769345, "lng": -73.976933}, {"name": "Walter Gladwin Park", "lat": 40.844688, "lng": -73.89456}, {"name": "Prospect Park", "lat": 40.660912, "lng": -73.974653}, {"name": "Quaker Parrot Park at the Dust Bowl", "lat": 40.632989, "lng": -74.013885}, {"name": "Space Time Playground", "lat": 40.822029, "lng": -73.859829}, {"name": "Beach 9 Playground", "lat": 40.595274, "lng": -73.745518}, {"name": "Robert Moses Playground", "lat": 40.748156, "lng": -73.969942}, {"name": "Washington Skate Park", "lat": 40.672856, "lng": -73.985785}, {"name": "Alice Austen Park", "lat": 40.615119, "lng": -74.063025}, {"name": "Forest Park", "lat": 40.70989, "lng": -73.835412}, {"name": "Flynn Playground", "lat": 40.820873, "lng": -73.911713}, {"name": "Soundview Park", "lat": 40.81947, "lng": -73.873563}, {"name": "Linden Park", "lat": 40.657974, "lng": -73.887435}, {"name": "Central Park", "lat": 40.772038, "lng": -73.971184}, {"name": "Ditmars Playground", "lat": 40.771423, "lng": -73.9074}, {"name": "Msgr. McGolrick Park", "lat": 40.724788, "lng": -73.943516}, {"name": "Bushwick Playground", "lat": 40.695839, "lng": -73.911709}, {"name": "Reiff Playground", "lat": 40.718143, "lng": -73.901523}, {"name": "Roberto Clemente Ballfield", "lat": 40.70623, "lng": -73.967207}, {"name": "Juniper Valley Park", "lat": 40.720434, "lng": -73.877347}, {"name": "Franklin D. Roosevelt Boardwalk and Beach", "lat": 40.578856, "lng": -74.077724}, {"name": "Clove Lakes Park", "lat": 40.618224, "lng": -74.107337}, {"name": "Wingate Park", "lat": 40.659255, "lng": -73.944641}, {"name": "Springfield Park", "lat": 40.65979, "lng": -73.762667}, {"name": "Commodore Barry Park", "lat": 40.697534, "lng": -73.979084}, {"name": "Riverside Park South", "lat": 40.773792, "lng": -73.993183}, {"name": "Kaltenmeier Playground", "lat": 40.614849, "lng": -74.068563}, {"name": "Samuel Seabury Playground", "lat": 40.785453, "lng": -73.950933}, {"name": "Horace Harding Playground", "lat": 40.733428, "lng": -73.860953}, {"name": "Frank D. O'Connor Playground", "lat": 40.744112, "lng": -73.886413}, {"name": "Phil \"Scooter\" Rizzuto Park", "lat": 40.694736, "lng": -73.821166}, {"name": "Bushwick Inlet Park", "lat": 40.721913, "lng": -73.960596}, {"name": "Franklin D. Roosevelt Boardwalk and Beach", "lat": 40.567928, "lng": -74.09114}, {"name": "Millbrook Playground", "lat": 40.804297, "lng": -73.916449}, {"name": "Bloomingdale Park", "lat": 40.535104, "lng": -74.20835}, {"name": "Millbrook Playground", "lat": 40.804086, "lng": -73.916544}, {"name": "Bay Terrace Playground", "lat": 40.782301, "lng": -73.777272}, {"name": "Noble Playground", "lat": 40.836738, "lng": -73.871778}, {"name": "Fort Tryon Park", "lat": 40.863806, "lng": -73.930287}, {"name": "Moore Playground", "lat": 40.809472, "lng": -73.938724}, {"name": "Faber Pool and Park", "lat": 40.641012, "lng": -74.135357}, {"name": "Riverside Park", "lat": 40.802149, "lng": -73.97167}, {"name": "St. Michael's Playground", "lat": 40.759576, "lng": -73.900435}, {"name": "Flushing Meadows Corona Park", "lat": 40.765514, "lng": -73.861936}, {"name": "Van Cortlandt Park", "lat": 40.886834, "lng": -73.898504}, {"name": "St. Nicholas Park", "lat": 40.815526, "lng": -73.948989}, {"name": "Underwood Park", "lat": 40.688838, "lng": -73.966717}, {"name": "Ewen Park", "lat": 40.882759, "lng": -73.909341}, {"name": "Flushing Meadows Corona Park", "lat": 40.747166, "lng": -73.836415}, {"name": "Robert E. Venable Park", "lat": 40.674614, "lng": -73.86575}, {"name": "Collect Pond Park", "lat": 40.716021, "lng": -74.001724}, {"name": "Prospect Park", "lat": 40.666899, "lng": -73.973706}, {"name": "Arverne Playground", "lat": 40.592988, "lng": -73.785263}, {"name": "Gouverneur Playground", "lat": 40.835804, "lng": -73.903302}, {"name": "Harvey Park", "lat": 40.783751, "lng": -73.822784}, {"name": "Silver Lake Park", "lat": 40.628598, "lng": -74.09159}, {"name": "John Allen Payne Playground", "lat": 40.639604, "lng": -74.023706}, {"name": "Laurelton Playground", "lat": 40.670439, "lng": -73.736306}, {"name": "Coney Island Beach & Boardwalk", "lat": 40.575054, "lng": -73.959337}, {"name": "Randall's Island Park", "lat": 40.794434, "lng": -73.918884}, {"name": "Franklin D. Roosevelt Boardwalk and Beach", "lat": 40.574242, "lng": -74.083064}, {"name": "Latimer Playground", "lat": 40.696491, "lng": -73.785982}, {"name": "Jackie Robinson Park Playground", "lat": 40.680015, "lng": -73.927312}, {"name": "Travers Park", "lat": 40.753643, "lng": -73.889626}, {"name": "Flynn Playground", "lat": 40.820898, "lng": -73.911891}, {"name": "Battery Park City", "lat": 40.715772, "lng": -74.016726}, {"name": "Alley Pond Park", "lat": 40.743189, "lng": -73.742136}, {"name": "St. Mary's Park", "lat": 40.811468, "lng": -73.914103}, {"name": "Central Park", "lat": 40.766243, "lng": -73.976386}, {"name": "Washington Square Park", "lat": 40.730763, "lng": -73.998191}, {"name": "Tony Dapolito Recreation Center", "lat": 40.729629, "lng": -74.005434}, {"name": "Dome Playground", "lat": 40.638098, "lng": -73.980144}, {"name": "Sherman Creek", "lat": 40.860203, "lng": -73.918558}, {"name": "Central Park", "lat": 40.797433, "lng": -73.951544}, {"name": "Bergen Beach Playground", "lat": 40.622537, "lng": -73.909578}, {"name": "St. Mary's Park", "lat": 40.809084, "lng": -73.911248}, {"name": "Riverdale Playground", "lat": 40.887359, "lng": -73.914262}, {"name": "Davidson Playground", "lat": 40.854981, "lng": -73.9077}, {"name": "Parade Ground", "lat": 40.6528, "lng": -73.966093}, {"name": "Van Dyke Playground", "lat": 40.664452, "lng": -73.90407}, {"name": "Gertrude Ederle Recreation Center", "lat": 40.771458, "lng": -73.98874}, {"name": "Thomas Jefferson Park", "lat": 40.793544, "lng": -73.936034}, {"name": "Marine Park", "lat": 40.604776, "lng": -73.932804}, {"name": "Patrick O'Rourke Playground", "lat": 40.619144, "lng": -74.014357}, {"name": "Highland Park", "lat": 40.684077, "lng": -73.885552}, {"name": "Flushing Meadows Corona Park", "lat": 40.744147, "lng": -73.845185}, {"name": "Red Hook Recreation Area", "lat": 40.672706, "lng": -74.008028}, {"name": "Epiphany Playground", "lat": 40.708511, "lng": -73.96573}, {"name": "Prospect Park", "lat": 40.666899, "lng": -73.973706}, {"name": "Fountain Of Youth Playground", "lat": 40.813527, "lng": -73.905334}, {"name": "Rockaway Beach and Boardwalk", "lat": 40.587173, "lng": -73.795695}, {"name": "Railroad Park", "lat": 40.824982, "lng": -73.915336}, {"name": "Central Park", "lat": 40.767631, "lng": -73.971305}, {"name": "Louis Pasteur Park", "lat": 40.762135, "lng": -73.734925}, {"name": "Bath Playground", "lat": 40.595401, "lng": -73.992996}, {"name": "Paerdegat Park", "lat": 40.637817, "lng": -73.938036}, {"name": "Rockaway Garage", "lat": 40.592171, "lng": -73.802989}, {"name": "Cherry Tree Park", "lat": 40.787168, "lng": -73.94727}, {"name": "Wagner Houses Pool", "lat": 40.801833, "lng": -73.932695}, {"name": "Rev. T. Wendell Foster Park and Recreation Center", "lat": 40.831793, "lng": -73.925245}, {"name": "Mahoney Playground", "lat": 40.643234, "lng": -74.086141}, {"name": "Beanstalk Playground", "lat": 40.853845, "lng": -73.916661}, {"name": "Harding Park", "lat": 40.80955, "lng": -73.856824}, {"name": "Redfern Playground", "lat": 40.611102, "lng": -73.749759}, {"name": "Conference House Park", "lat": 40.505525, "lng": -74.254196}, {"name": "Sherman Creek", "lat": 40.862003, "lng": -73.9171}, {"name": "Central Park", "lat": 40.767631, "lng": -73.971305}, {"name": "Sherry Dog Run", "lat": 40.741177, "lng": -73.899036}, {"name": "Grace Playground", "lat": 40.671031, "lng": -73.894633}, {"name": "Heckscher Playground", "lat": 40.695306, "lng": -73.918189}, {"name": "Fort Greene Park", "lat": 40.692223, "lng": -73.974731}, {"name": "Rock Garden Park", "lat": 40.835593, "lng": -73.884937}, {"name": "Riverside Park", "lat": 40.797173, "lng": -73.975134}, {"name": "Flushing Meadows Corona Park", "lat": 40.751336, "lng": -73.849372}, {"name": "St. Mary's Park", "lat": 40.811468, "lng": -73.914103}, {"name": "Frederick Douglass Playground", "lat": 40.797367, "lng": -73.967709}, {"name": "Alexander Hamilton Playground", "lat": 40.823006, "lng": -73.951415}, {"name": "Sara D. Roosevelt Park", "lat": 40.716719, "lng": -73.994081}, {"name": "Pelham Bay Park", "lat": 40.858217, "lng": -73.800725}, {"name": "Canarsie Park", "lat": 40.628052, "lng": -73.894477}, {"name": "P.O. Reinaldo Salgado Playground", "lat": 40.68771, "lng": -73.925909}, {"name": "Glen Oaks Oval", "lat": 40.749456, "lng": -73.714939}, {"name": "Sledge Playground", "lat": 40.638116, "lng": -73.897685}, {"name": "Freshkills Park", "lat": 40.561803, "lng": -74.194745}, {"name": "Cedar Playground", "lat": 40.854824, "lng": -73.917938}, {"name": "Baisley Pond Park", "lat": 40.67599, "lng": -73.784026}, {"name": "St. John's Park", "lat": 40.674831, "lng": -73.933543}, {"name": "Brooklyn Botanic Garden", "lat": 40.669615, "lng": -73.964833}, {"name": "Central Park", "lat": 40.784689, "lng": -73.968375}, {"name": "Kissena Corridor Park", "lat": 40.746168, "lng": -73.817293}, {"name": "McCaffrey Playground", "lat": 40.759136, "lng": -73.991347}, {"name": "Marcus Garvey Park", "lat": 40.804984, "lng": -73.94486}, {"name": "Baisley Pond Park", "lat": 40.677722, "lng": -73.784021}, {"name": "Kaiser Park", "lat": 40.578816, "lng": -73.995949}, {"name": "Beach 30th Street Playground", "lat": 40.592196, "lng": -73.763222}, {"name": "Dyker Beach Park", "lat": 40.606718, "lng": -74.019303}, {"name": "Pink Playground", "lat": 40.666701, "lng": -73.862595}, {"name": "Great Kills Veterans Playground", "lat": 40.547028, "lng": -74.151677}, {"name": "Hope Ballfield", "lat": 40.697227, "lng": -73.917078}, {"name": "Ehrenreich-Austin Playground", "lat": 40.715207, "lng": -73.836729}, {"name": "Whitey Ford Field", "lat": 40.777189, "lng": -73.934932}, {"name": "Lion's Pride Playground", "lat": 40.662577, "lng": -73.899672}, {"name": "Manhattan Beach Park", "lat": 40.57675, "lng": -73.942945}, {"name": "Julio Carballo Fields", "lat": 40.814958, "lng": -73.889238}, {"name": "Fred Samuel Playground", "lat": 40.816874, "lng": -73.93929}, {"name": "Pelham Bay Park", "lat": 40.846307, "lng": -73.825005}, {"name": "Ravenswood Playground", "lat": 40.762277, "lng": -73.935676}, {"name": "Rockaway Beach Boardwalk", "lat": 40.580527, "lng": -73.825555}, {"name": "Grassmere Playground", "lat": 40.599602, "lng": -73.759271}, {"name": "Flushing Meadows Corona Park", "lat": 40.75175, "lng": -73.843003}, {"name": "Constance Baker Motley Recreation Center", "lat": 40.756481, "lng": -73.96513}, {"name": "Jackie Robinson Park", "lat": 40.827131, "lng": -73.940375}, {"name": "Behagen Playground", "lat": 40.82602, "lng": -73.901244}, {"name": "Seth Low Playground/ Bealin Square", "lat": 40.607919, "lng": -73.986686}, {"name": "Luther Gulick Park", "lat": 40.715771, "lng": -73.981144}, {"name": "Riverside Park", "lat": 40.803151, "lng": -73.970509}, {"name": "Prospect Park", "lat": 40.660802, "lng": -73.969857}, {"name": "Brownsville Playground", "lat": 40.656223, "lng": -73.902784}, {"name": "Thomas Greene Playground", "lat": 40.680071, "lng": -73.98465}, {"name": "McKinley Playground", "lat": 40.724428, "lng": -73.985496}, {"name": "Rockaway Beach", "lat": 40.568549, "lng": -73.865033}, {"name": "Kosciuszko Pool", "lat": 40.691293, "lng": -73.948752}, {"name": "St. Nicholas Playground South", "lat": 40.810865, "lng": -73.947467}, {"name": "Lindower Park", "lat": 40.611275, "lng": -73.91109}, {"name": "DiGilio Playground", "lat": 40.632274, "lng": -73.977156}, {"name": "Frederick Johnson Playground", "lat": 40.824811, "lng": -73.935535}, {"name": "High Rock Park", "lat": 40.58268, "lng": -74.124288}, {"name": "Van Cortlandt Park", "lat": 40.892502, "lng": -73.890904}, {"name": "Cadman Plaza Park", "lat": 40.698443, "lng": -73.990626}, {"name": "Lawrence Virgilio Playground", "lat": 40.747365, "lng": -73.911108}, {"name": "McGuire Fields", "lat": 40.620366, "lng": -73.90017}, {"name": "Herman Dolgon Playground", "lat": 40.598218, "lng": -73.939426}, {"name": "Forest Park", "lat": 40.702311, "lng": -73.868143}, {"name": "Lincoln Terrace / Arthur S. Somers Park", "lat": 40.667176, "lng": -73.927778}, {"name": "Flushing Meadows Corona Park", "lat": 40.751408, "lng": -73.833778}, {"name": "Dry Dock Playground", "lat": 40.725355, "lng": -73.975238}, {"name": "Remsen Playground", "lat": 40.642166, "lng": -73.907717}, {"name": "Howard Von Dohlen Playground", "lat": 40.699577, "lng": -73.812919}, {"name": "Equity Playground", "lat": 40.691657, "lng": -73.85351}, {"name": "McCarren Park", "lat": 40.720081, "lng": -73.94993}, {"name": "Forest Park", "lat": 40.696595, "lng": -73.860428}, {"name": "Rochdale Park", "lat": 40.674113, "lng": -73.774417}, {"name": "St. Mark's Playground", "lat": 40.674678, "lng": -73.939956}, {"name": "Clove Lakes Park", "lat": 40.61819, "lng": -74.107287}, {"name": "Jacob Joffe Fields", "lat": 40.625007, "lng": -73.919417}, {"name": "McGuire Fields", "lat": 40.618072, "lng": -73.898713}, {"name": "Pelham Bay Park", "lat": 40.865453, "lng": -73.796187}, {"name": "Willowbrook Park", "lat": 40.603722, "lng": -74.161076}, {"name": "Martin Luther King Jr. Playground", "lat": 40.667833, "lng": -73.890376}, {"name": "St. James Park", "lat": 40.865297, "lng": -73.898532}, {"name": "Crotona Park", "lat": 40.840033, "lng": -73.895347}, {"name": "Barretto Point Park", "lat": 40.805847, "lng": -73.888421}, {"name": "Bayswater Park", "lat": 40.599777, "lng": -73.767912}, {"name": "Central Park", "lat": 40.795834, "lng": -73.961122}, {"name": "Bellevue South Park", "lat": 40.739892, "lng": -73.978288}, {"name": "Quarry Ballfields", "lat": 40.850818, "lng": -73.891541}, {"name": "Detective Keith L Williams Park", "lat": 40.70185, "lng": -73.783512}, {"name": "Cunningham Park", "lat": 40.738681, "lng": -73.764959}, {"name": "Montbellier Park", "lat": 40.674447, "lng": -73.756871}, {"name": "Martin Luther King, Jr. Playground", "lat": 40.800298, "lng": -73.950294}, {"name": "Sakura Park", "lat": 40.812699, "lng": -73.962662}, {"name": "Samuel N. Bennerson 2nd Playground", "lat": 40.773914, "lng": -73.987003}, {"name": "Highbridge Park", "lat": 40.858334, "lng": -73.92581}, {"name": "Mount Hope Playground", "lat": 40.85034, "lng": -73.909255}, {"name": "Bronx Park", "lat": 40.869926, "lng": -73.876121}, {"name": "Hoyt Playground", "lat": 40.77134, "lng": -73.91744}, {"name": "Agnes Haywood Playground", "lat": 40.880293, "lng": -73.862033}, {"name": "Bensonhurst Park", "lat": 40.595109, "lng": -74.001996}, {"name": "J. Hood Wright Park", "lat": 40.846444, "lng": -73.940763}, {"name": "Central Park", "lat": 40.773252, "lng": -73.97712}, {"name": "Columbus Park", "lat": 40.714797, "lng": -74.00025}, {"name": "William Sheridan Playground", "lat": 40.715464, "lng": -73.963984}, {"name": "Williamsbridge Oval", "lat": 40.877159, "lng": -73.87856}, {"name": "Lincoln Terrace / Arthur S. Somers Park", "lat": 40.666721, "lng": -73.925489}, {"name": "Murray Playground", "lat": 40.747368, "lng": -73.948813}, {"name": "Central Park", "lat": 40.78764, "lng": -73.956512}, {"name": "Walton Park", "lat": 40.855348, "lng": -73.905156}, {"name": "Crotona Park", "lat": 40.836441, "lng": -73.894709}, {"name": "Hunter's Point South Park", "lat": 40.74175, "lng": -73.960636}, {"name": "Coney Island Beach & Boardwalk", "lat": 40.574727, "lng": -73.96463}, {"name": "Sara D. Roosevelt Park", "lat": 40.717223, "lng": -73.993718}, {"name": "Spuyten Duyvil Playground", "lat": 40.887113, "lng": -73.916226}, {"name": "Flushing Meadows Corona Park", "lat": 40.751761, "lng": -73.837424}, {"name": "Kissena Corridor Park", "lat": 40.745209, "lng": -73.789722}, {"name": "Central Park", "lat": 40.767205, "lng": -73.971283}, {"name": "Flushing Meadows Corona Park", "lat": 40.740315, "lng": -73.842057}, {"name": "Sperandeo Brothers Playground", "lat": 40.677667, "lng": -73.884243}, {"name": "Forest Park", "lat": 40.701215, "lng": -73.854417}, {"name": "Shore Park and Parkway", "lat": 40.621832, "lng": -74.040579}, {"name": "Conference House Park", "lat": 40.503131, "lng": -74.253222}, {"name": "Joseph Austin Playground", "lat": 40.715468, "lng": -73.800596}, {"name": "Morningside Park", "lat": 40.808226, "lng": -73.956715}, {"name": "Prospect Park", "lat": 40.661656, "lng": -73.972849}, {"name": "Seton Park", "lat": 40.885425, "lng": -73.915703}, {"name": "Bathgate Playground", "lat": 40.852533, "lng": -73.894529}, {"name": "John V. Lindsay East River Park", "lat": 40.712898, "lng": -73.976411}, {"name": "Randall's Island Park", "lat": 40.799427, "lng": -73.923253}, {"name": "Percy E. Sutton Playground", "lat": 40.825672, "lng": -73.934842}, {"name": "Stanley Isaacs Playground", "lat": 40.782933, "lng": -73.944592}, {"name": "Central Park", "lat": 40.796825, "lng": -73.949906}, {"name": "Tottenville Pool", "lat": 40.50585, "lng": -74.235292}, {"name": "Flushing Meadows Corona Park", "lat": 40.737155, "lng": -73.845657}, {"name": "Silver Lake Park", "lat": 40.623028, "lng": -74.096165}, {"name": "Owl's Head Park", "lat": 40.639905, "lng": -74.030599}, {"name": "Marine Park", "lat": 40.593985, "lng": -73.925537}, {"name": "Henry Hudson Park", "lat": 40.880644, "lng": -73.919739}, {"name": "Blood Root Valley", "lat": 40.591772, "lng": -74.139254}, {"name": "Kissena Park", "lat": 40.748761, "lng": -73.803254}, {"name": "Red Hook Recreation Area", "lat": 40.673287, "lng": -74.003403}, {"name": "Fort Tryon Park", "lat": 40.860843, "lng": -73.933105}, {"name": "Pelham Bay Park", "lat": 40.870229, "lng": -73.788606}, {"name": "Playground One Forty", "lat": 40.674753, "lng": -73.800961}, {"name": "Franklin D. Roosevelt Boardwalk and Beach", "lat": 40.568872, "lng": -74.090607}, {"name": "Howard Pool", "lat": 40.672822, "lng": -73.908935}, {"name": "Ruppert Park", "lat": 40.780982, "lng": -73.950129}, {"name": "St. Nicholas Park", "lat": 40.813342, "lng": -73.951287}, {"name": "Mosholu Parkway", "lat": 40.881912, "lng": -73.885019}, {"name": "Sol Lain Plgd", "lat": 40.714373, "lng": -73.983975}, {"name": "The High Line", "lat": 40.744566, "lng": -74.006947}, {"name": "Brigadier General Charles Young Playground", "lat": 40.819394, "lng": -73.934621}, {"name": "Flushing Meadows Corona Park", "lat": 40.741377, "lng": -73.848278}, {"name": "Prospect Park", "lat": 40.665364, "lng": -73.965469}, {"name": "Central Park", "lat": 40.780862, "lng": -73.96154}, {"name": "Ian Maclennan Garden", "lat": 40.714233, "lng": -73.856619}, {"name": "Mount Hope Garden", "lat": 40.852438, "lng": -73.905239}, {"name": "Riverside Park", "lat": 40.802281, "lng": -73.972423}, {"name": "Rev. T. Wendell Foster Park and Recreation Center", "lat": 40.831545, "lng": -73.924535}, {"name": "Cunningham Park", "lat": 40.734615, "lng": -73.769549}, {"name": "Central Park", "lat": 40.793554, "lng": -73.953092}, {"name": "Turtle Playground", "lat": 40.742253, "lng": -73.827725}, {"name": "Pomonok Playground", "lat": 40.736582, "lng": -73.813822}, {"name": "Hunts Point Playground", "lat": 40.81423, "lng": -73.885902}, {"name": "Amersfort Park", "lat": 40.627793, "lng": -73.938916}, {"name": "Vinmont Veteran Park", "lat": 40.902646, "lng": -73.904244}, {"name": "Pearl St Playground", "lat": 40.707895, "lng": -74.003817}, {"name": "Old Town Playground", "lat": 40.595489, "lng": -74.081492}, {"name": "Macombs Dam Park", "lat": 40.830646, "lng": -73.931279}, {"name": "Betsy Head Park", "lat": 40.663002, "lng": -73.912195}, {"name": "Coney Island Boat Basin", "lat": 40.581257, "lng": -73.989854}, {"name": "Torsney Playground", "lat": 40.74721, "lng": -73.922066}, {"name": "Hamilton Fish Park", "lat": 40.719981, "lng": -73.981456}, {"name": "Sternberg Park", "lat": 40.706333, "lng": -73.947894}, {"name": "Jacob H. Schiff Playground", "lat": 40.820346, "lng": -73.952177}, {"name": "Rev J Polite Playground", "lat": 40.827333, "lng": -73.896618}, {"name": "Harold Ickes Playground", "lat": 40.6827, "lng": -74.005865}, {"name": "Central Park", "lat": 40.783793, "lng": -73.965843}, {"name": "Colgate Close", "lat": 40.823887, "lng": -73.881428}, {"name": "Pelham Bay Park", "lat": 40.869644, "lng": -73.790492}, {"name": "Gerard P. Dugan Playground", "lat": 40.56094, "lng": -74.110557}, {"name": "Bronx River Parkway", "lat": 40.827601, "lng": -73.873893}, {"name": "John V. Lindsay East River Park", "lat": 40.711278, "lng": -73.977487}, {"name": "Flushing Meadows Corona Park", "lat": 40.73693, "lng": -73.845648}, {"name": "Parade Ground", "lat": 40.651792, "lng": -73.966061}, {"name": "Central Park", "lat": 40.768237, "lng": -73.976892}, {"name": "Wards Island Park", "lat": 40.791202, "lng": -73.929788}, {"name": "Hoover - Manton Playgrounds", "lat": 40.711979, "lng": -73.821376}, {"name": "Marion Hopkinson Playground", "lat": 40.681827, "lng": -73.914007}, {"name": "St. James Park", "lat": 40.86455, "lng": -73.899021}, {"name": "Bronx Park", "lat": 40.851082, "lng": -73.870219}, {"name": "Astoria Heights Playground", "lat": 40.760994, "lng": -73.911333}, {"name": "Rockaway Beach Boardwalk", "lat": 40.579661, "lng": -73.829262}, {"name": "James Weldon Johnson Playground", "lat": 40.797016, "lng": -73.941615}, {"name": "Calvert Vaux Park", "lat": 40.587058, "lng": -73.992614}, {"name": "St. Andrew's Playground", "lat": 40.678593, "lng": -73.942084}, {"name": "Sarsfield Playground", "lat": 40.61999, "lng": -73.9376}, {"name": "J. Hood Wright Park", "lat": 40.846444, "lng": -73.940763}, {"name": "Franklin D. Roosevelt Boardwalk and Beach", "lat": 40.571451, "lng": -74.087674}, {"name": "Hoover - Manton Playgrounds", "lat": 40.712346, "lng": -73.821639}, {"name": "Randall's Island Park", "lat": 40.791664, "lng": -73.915883}, {"name": "Chelsea Park", "lat": 40.749632, "lng": -74.000139}, {"name": "Classon Playground", "lat": 40.689169, "lng": -73.960634}, {"name": "Battery Park City", "lat": 40.708757, "lng": -74.018505}, {"name": "Central Park", "lat": 40.767631, "lng": -73.971305}, {"name": "Van Cortlandt Park", "lat": 40.897364, "lng": -73.895204}, {"name": "Fisher Pool", "lat": 40.758451, "lng": -73.869459}, {"name": "Fort Washington Park", "lat": 40.849838, "lng": -73.946719}, {"name": "Grand Ferry Park", "lat": 40.716498, "lng": -73.966878}, {"name": "Coney Island Beach & Boardwalk", "lat": 40.571435, "lng": -73.994572}, {"name": "Brownsville Playground", "lat": 40.656223, "lng": -73.902784}, {"name": "Saratoga Park", "lat": 40.685073, "lng": -73.919089}, {"name": "Washington Square Park", "lat": 40.731608, "lng": -73.997608}, {"name": "Russell Sage Playground", "lat": 40.723681, "lng": -73.8517}, {"name": "Livonia Park", "lat": 40.663964, "lng": -73.902112}, {"name": "Rudd Playground State Park", "lat": 40.683269, "lng": -73.905021}, {"name": "Flushing Meadows Corona Park", "lat": 40.751618, "lng": -73.843537}, {"name": "Neighborhood Parks", "lat": 40.690223, "lng": -73.996779}, {"name": "Central Park", "lat": 40.783793, "lng": -73.965843}, {"name": "College Point Fields", "lat": 40.775697, "lng": -73.837361}, {"name": "Playground 103 CIII", "lat": 40.78691, "lng": -73.939219}, {"name": "Flushing Meadows Corona Park", "lat": 40.73267, "lng": -73.837906}, {"name": "Sheltering Arms Playground", "lat": 40.815335, "lng": -73.955979}, {"name": "Central Park", "lat": 40.784491, "lng": -73.9589}, {"name": "Big Bush Playground", "lat": 40.740341, "lng": -73.902529}, {"name": "Rev. Dr. Maggie Howard Playground", "lat": 40.62387, "lng": -74.080299}, {"name": "Red Hook Recreation Area", "lat": 40.671202, "lng": -74.002411}, {"name": "Nicholas Naquan Heyward Jr. Park", "lat": 40.684375, "lng": -73.987811}, {"name": "Crotona Park", "lat": 40.840059, "lng": -73.895133}, {"name": "Gen. Douglas MacArthur Park", "lat": 40.586232, "lng": -74.099979}, {"name": "Hell's Kitchen Park", "lat": 40.762909, "lng": -73.992702}, {"name": "Newtown Barge Playground", "lat": 40.736037, "lng": -73.959831}, {"name": "Audubon Playground", "lat": 40.841637, "lng": -73.93822}, {"name": "Brizzi Playground", "lat": 40.64251, "lng": -73.994592}, {"name": "Prall Playground", "lat": 40.628685, "lng": -74.117805}, {"name": "Wakefield Playground", "lat": 40.901789, "lng": -73.854757}, {"name": "Central Park", "lat": 40.799818, "lng": -73.957432}, {"name": "Callahan-Kelly Playground", "lat": 40.678428, "lng": -73.905727}, {"name": "Astoria Park", "lat": 40.776051, "lng": -73.924883}, {"name": "Bushwick Playground", "lat": 40.6959, "lng": -73.912982}, {"name": "Lozada Playground", "lat": 40.807779, "lng": -73.925038}, {"name": "Coney Island Beach & Boardwalk", "lat": 40.572369, "lng": -73.988953}, {"name": "Sara D. Roosevelt Park", "lat": 40.717326, "lng": -73.993862}, {"name": "Dyker Beach Park", "lat": 40.606716, "lng": -74.01642}, {"name": "Parade Ground", "lat": 40.649203, "lng": -73.970065}, {"name": "Alley Park", "lat": 40.747909, "lng": -73.744637}, {"name": "Leif Ericson Park", "lat": 40.630925, "lng": -74.01226}, {"name": "Cunningham Park", "lat": 40.739165, "lng": -73.76514}, {"name": "Adam Yauch Park", "lat": 40.69223, "lng": -73.999077}, {"name": "McCarren Park", "lat": 40.720776, "lng": -73.949767}, {"name": "Bronx River Parkway", "lat": 40.872928, "lng": -73.871177}, {"name": "Central Park", "lat": 40.79126, "lng": -73.959187}, {"name": "Theodore Roosevelt Park", "lat": 40.782235, "lng": -73.974592}, {"name": "Bella Abzug Park", "lat": 40.756084, "lng": -73.99992}, {"name": "100% Playground", "lat": 40.646795, "lng": -73.899513}, {"name": "Manhattan Beach Park", "lat": 40.576171, "lng": -73.941789}, {"name": "Breukelen Ballfields", "lat": 40.651445, "lng": -73.890658}, {"name": "Forest Park", "lat": 40.700871, "lng": -73.858598}, {"name": "Tompkins Square Park", "lat": 40.726633, "lng": -73.982176}, {"name": "Marie Curie Playground", "lat": 40.757251, "lng": -73.77091}, {"name": "Bayswater Park", "lat": 40.599288, "lng": -73.767167}, {"name": "Hinton Park", "lat": 40.755487, "lng": -73.85483}, {"name": "Woodtree Playground", "lat": 40.777508, "lng": -73.902464}, {"name": "Archie Spigner Park", "lat": 40.693033, "lng": -73.77973}, {"name": "Seaside Wildlife Nature Park", "lat": 40.540305, "lng": -74.143233}, {"name": "Plimpton Playground", "lat": 40.843896, "lng": -73.922499}, {"name": "Southern Fields", "lat": 40.665378, "lng": -73.824742}, {"name": "Vidalia Park", "lat": 40.843666, "lng": -73.881957}, {"name": "Thomas Jefferson Park", "lat": 40.793452, "lng": -73.936779}, {"name": "Flushing Meadows Corona Park", "lat": 40.751336, "lng": -73.849373}, {"name": "McCarren Park", "lat": 40.721549, "lng": -73.952992}, {"name": "Belt Parkway/Shore Parkway", "lat": 40.618767, "lng": -73.898551}, {"name": "Prospect Park", "lat": 40.672117, "lng": -73.970436}, {"name": "Wagner Houses Pool", "lat": 40.801736, "lng": -73.932762}, {"name": "Bush Terminal Park", "lat": 40.65241, "lng": -74.019763}, {"name": "Fox Playground", "lat": 40.632582, "lng": -73.923987}, {"name": "Howard Bennett Playground", "lat": 40.813846, "lng": -73.938728}, {"name": "Broad Channel American Park", "lat": 40.596011, "lng": -73.82283}, {"name": "Nehemiah Park", "lat": 40.661609, "lng": -73.90541}, {"name": "Alfred E. Smith Playground", "lat": 40.710185, "lng": -73.997636}, {"name": "Cedar Playground", "lat": 40.855283, "lng": -73.917425}, {"name": "Jennifer's Playground", "lat": 40.620077, "lng": -74.163591}, {"name": "Renaissance Playground", "lat": 40.821451, "lng": -73.941807}, {"name": "Dyker Beach Park", "lat": 40.613065, "lng": -74.013008}, {"name": "Powell Playground", "lat": 40.671012, "lng": -73.904678}, {"name": "Detective Keith L Williams Park", "lat": 40.703186, "lng": -73.785033}, {"name": "Willis Playground", "lat": 40.811313, "lng": -73.922648}, {"name": "El Shabazz Playground", "lat": 40.682932, "lng": -73.930186}, {"name": "Robert Moses Playground", "lat": 40.748147, "lng": -73.96867}, {"name": "D'Auria-Murphy Triangle", "lat": 40.85329, "lng": -73.889038}, {"name": "Tudor Park", "lat": 40.673592, "lng": -73.856163}, {"name": "River Avenue Parks", "lat": 40.825814, "lng": -73.92692}, {"name": "Prospect Park", "lat": 40.661575, "lng": -73.9788}, {"name": "The Painter's Playground", "lat": 40.720634, "lng": -73.860752}, {"name": "Flushing Meadows Corona Park", "lat": 40.743145, "lng": -73.848908}, {"name": "Betsy Head Park", "lat": 40.663073, "lng": -73.914292}, {"name": "Susan Smith McKinney Steward Park", "lat": 40.700783, "lng": -73.985426}, {"name": "Brooklyn Bridge Park", "lat": 40.704065, "lng": -73.990148}, {"name": "Flushing Meadows Corona Park", "lat": 40.747695, "lng": -73.839258}, {"name": "Murphy Brothers Playground", "lat": 40.730253, "lng": -73.973624}, {"name": "McCarren Park", "lat": 40.720081, "lng": -73.94993}, {"name": "Forest Park", "lat": 40.710769, "lng": -73.835496}, {"name": "Pelham Bay Park", "lat": 40.870475, "lng": -73.786586}, {"name": "Rochdale Park", "lat": 40.675117, "lng": -73.773813}, {"name": "Greencroft Playground", "lat": 40.551859, "lng": -74.136792}, {"name": "Bicentennial Veterans Memorial Park", "lat": 40.822396, "lng": -73.812937}, {"name": "Manhattan Beach Park", "lat": 40.576175, "lng": -73.941775}, {"name": "Andrew Haswell Green Park", "lat": 40.760442, "lng": -73.956499}, {"name": "Story Playground", "lat": 40.822277, "lng": -73.862996}, {"name": "Isham Park", "lat": 40.871647, "lng": -73.919959}, {"name": "Dean Playground", "lat": 40.68123, "lng": -73.973533}, {"name": "Frank Principe Park", "lat": 40.726621, "lng": -73.903779}, {"name": "Brooklyn Bridge Park", "lat": 40.704142, "lng": -73.98942}, {"name": "Coney Island Beach & Boardwalk", "lat": 40.573133, "lng": -73.979094}, {"name": "Juniper Valley Park", "lat": 40.719779, "lng": -73.880398}, {"name": "Riverside Park", "lat": 40.801131, "lng": -73.973749}, {"name": "Sumner Playground", "lat": 40.697578, "lng": -73.942472}, {"name": "Slattery Playground", "lat": 40.857214, "lng": -73.89848}, {"name": "Ampere Playground", "lat": 40.681621, "lng": -73.856949}, {"name": "Ciccarone Park", "lat": 40.85603, "lng": -73.886578}, {"name": "Central Park", "lat": 40.780437, "lng": -73.965001}, {"name": "Pulaski Playground", "lat": 40.693677, "lng": -73.941849}, {"name": "Flushing Meadows Corona Park", "lat": 40.751408, "lng": -73.833778}, {"name": "Hillside Dog Park", "lat": 40.701741, "lng": -73.994348}, {"name": "Van Cortlandt Park", "lat": 40.890477, "lng": -73.896514}, {"name": "Washington Square Park", "lat": 40.730158, "lng": -73.997518}, {"name": "Pelham Bay Park", "lat": 40.86587, "lng": -73.794414}, {"name": "Slattery Playground", "lat": 40.857536, "lng": -73.898759}, {"name": "Bloomingdale Park", "lat": 40.533364, "lng": -74.209103}, {"name": "Luna Playground", "lat": 40.576313, "lng": -73.978278}, {"name": "The Battery", "lat": 40.701782, "lng": -74.015685}, {"name": "Freshkills Park", "lat": 40.592577, "lng": -74.163838}, {"name": "Washington Market Park", "lat": 40.717411, "lng": -74.011477}, {"name": "Seaside Playground", "lat": 40.580672, "lng": -73.830544}, {"name": "Utopia Playground", "lat": 40.730829, "lng": -73.792373}, {"name": "Kissena Park", "lat": 40.749487, "lng": -73.807249}, {"name": "Hickman Playground", "lat": 40.620255, "lng": -73.912453}, {"name": "Gravesend Park", "lat": 40.622912, "lng": -73.984363}, {"name": "Van Nest Park", "lat": 40.843566, "lng": -73.865852}, {"name": "Bronx River Parkway", "lat": 40.88382, "lng": -73.867226}, {"name": "Canarsie Park", "lat": 40.629786, "lng": -73.89428}, {"name": "Crocheron Park", "lat": 40.773011, "lng": -73.767006}, {"name": "Franklin D. Roosevelt Boardwalk and Beach", "lat": 40.57903, "lng": -74.074815}, {"name": "Bath Beach Park", "lat": 40.60261, "lng": -74.01134}, {"name": "Harlem River Park", "lat": 40.805644, "lng": -73.933986}, {"name": "Sunset Park", "lat": 40.646921, "lng": -74.002121}, {"name": "Forest Park", "lat": 40.701448, "lng": -73.853219}, {"name": "Hunter's Point South Park", "lat": 40.743097, "lng": -73.960416}, {"name": "Manhattan Beach Park", "lat": 40.577367, "lng": -73.939985}, {"name": "Crotona Park", "lat": 40.839095, "lng": -73.894095}, {"name": "Juniper Valley Park", "lat": 40.719661, "lng": -73.882876}, {"name": "Central Park", "lat": 40.789427, "lng": -73.961892}, {"name": "Stuyvesant Square", "lat": 40.732922, "lng": -73.983647}, {"name": "Riverside Park", "lat": 40.78744, "lng": -73.981966}, {"name": "Coney Island Beach & Boardwalk", "lat": 40.574727, "lng": -73.964637}, {"name": "Golconda Playground", "lat": 40.697647, "lng": -73.982541}, {"name": "Lincoln Terrace / Arthur S. Somers Park", "lat": 40.666625, "lng": -73.926321}, {"name": "Coney Island Beach & Boardwalk", "lat": 40.575269, "lng": -73.958957}, {"name": "Flushing Meadows Corona Park", "lat": 40.746495, "lng": -73.841939}, {"name": "Mafera Park", "lat": 40.706393, "lng": -73.890958}, {"name": "Roy Wilkins Recreation Center", "lat": 40.687241, "lng": -73.769516}, {"name": "Arsenal West", "lat": 40.769783, "lng": -73.98292}, {"name": "Harlem River Park", "lat": 40.805628, "lng": -73.93268}, {"name": "Luther Gulick Park", "lat": 40.715949, "lng": -73.981628}, {"name": "Wards Island Park", "lat": 40.787245, "lng": -73.927698}, {"name": "Roy Wilkins Recreation Center", "lat": 40.684733, "lng": -73.770858}, {"name": "Pelham Bay Park", "lat": 40.867369, "lng": -73.793657}, {"name": "Rockaway Beach Boardwalk", "lat": 40.585436, "lng": -73.808797}, {"name": "Fort Washington Park", "lat": 40.847761, "lng": -73.946463}, {"name": "Detective Keith L Williams Park", "lat": 40.704081, "lng": -73.785158}, {"name": "Chelsea Recreation Center", "lat": 40.748296, "lng": -74.002219}, {"name": "Davis Playground", "lat": 40.642544, "lng": -74.085353}, {"name": "Rockaway Beach Boardwalk", "lat": 40.582961, "lng": -73.817548}, {"name": "Tony Dapolito Recreation Center", "lat": 40.729629, "lng": -74.005434}, {"name": "Franklin D. Roosevelt Boardwalk and Beach", "lat": 40.57001, "lng": -74.088676}, {"name": "Jennifer's Playground", "lat": 40.619767, "lng": -74.162765}, {"name": "Dyker Beach Park", "lat": 40.616929, "lng": -74.020472}, {"name": "Inwood Hill Park", "lat": 40.867246, "lng": -73.928773}, {"name": "Prospect Park", "lat": 40.657617, "lng": -73.969255}, {"name": "Laurelton Parkway", "lat": 40.684111, "lng": -73.727299}, {"name": "Athens Square", "lat": 40.767993, "lng": -73.921922}, {"name": "Givan Square", "lat": 40.86797, "lng": -73.842842}, {"name": "Randall's Island Park", "lat": 40.79927, "lng": -73.922798}, {"name": "Terrace Playground", "lat": 40.613357, "lng": -74.098765}, {"name": "Franklin D. Roosevelt Boardwalk and Beach", "lat": 40.591891, "lng": -74.063725}, {"name": "Flushing Meadows Corona Park", "lat": 40.750972, "lng": -73.833238}, {"name": "Holy Cow Playground", "lat": 40.741304, "lng": -73.776396}, {"name": "Flushing Meadows Corona Park", "lat": 40.763077, "lng": -73.843835}, {"name": "Kelly Park Playground", "lat": 40.603745, "lng": -73.957878}, {"name": "Battery Park City", "lat": 40.71791, "lng": -74.015756}, {"name": "Betsy Head Park", "lat": 40.664259, "lng": -73.911736}, {"name": "Canarsie Park", "lat": 40.628896, "lng": -73.892863}, {"name": "Marine Park", "lat": 40.60602, "lng": -73.926418}, {"name": "The High Line", "lat": 40.752266, "lng": -74.001936}, {"name": "McGuire Fields", "lat": 40.618573, "lng": -73.898791}, {"name": "Pena Herrera Playground", "lat": 40.64941, "lng": -74.012086}, {"name": "Bronx River Parkway", "lat": 40.834525, "lng": -73.873479}, {"name": "Detective Keith L Williams Park", "lat": 40.701993, "lng": -73.78354}, {"name": "Claremont Park", "lat": 40.841462, "lng": -73.906845}, {"name": "Luna Playground", "lat": 40.575884, "lng": -73.977476}, {"name": "Coney Island Beach & Boardwalk", "lat": 40.571518, "lng": -73.991806}, {"name": "Shore Park and Parkway", "lat": 40.617545, "lng": -74.040029}, {"name": "Central Park", "lat": 40.76736, "lng": -73.978163}, {"name": "Markham Playground", "lat": 40.62311, "lng": -74.14584}, {"name": "Yellowstone Park", "lat": 40.726339, "lng": -73.847842}, {"name": "Crotona Park", "lat": 40.84197, "lng": -73.894856}, {"name": "Arsenal West", "lat": 40.769783, "lng": -73.98292}, {"name": "Crotona Park", "lat": 40.840238, "lng": -73.898137}, {"name": "St. John's Park", "lat": 40.673861, "lng": -73.934891}, {"name": "Augustus St. Gaudens Playground", "lat": 40.735504, "lng": -73.982275}, {"name": "Forest Park", "lat": 40.700906, "lng": -73.842471}, {"name": "McDonald Playground", "lat": 40.600497, "lng": -73.972149}, {"name": "College Point Fields", "lat": 40.776423, "lng": -73.838611}, {"name": "Dag Hammarskjold Plaza", "lat": 40.751811, "lng": -73.968025}, {"name": "Hillside Playground", "lat": 40.741302, "lng": -73.713202}, {"name": "Bloomingdale Park", "lat": 40.535299, "lng": -74.208555}, {"name": "P.O. Serrano Playground", "lat": 40.823191, "lng": -73.850781}, {"name": "Coney Island Beach & Boardwalk", "lat": 40.573131, "lng": -73.979108}, {"name": "Albemarle Playground", "lat": 40.645837, "lng": -73.980305}, {"name": "Prospect Park", "lat": 40.663586, "lng": -73.973349}, {"name": "Lafayette Playground", "lat": 40.594441, "lng": -73.985795}, {"name": "Clove Lakes Park", "lat": 40.620381, "lng": -74.118474}, {"name": "Pelham Bay Park", "lat": 40.868327, "lng": -73.792393}, {"name": "Marine Park", "lat": 40.59658, "lng": -73.928008}, {"name": "Dean Playground", "lat": 40.680675, "lng": -73.972899}, {"name": "Howard Playground", "lat": 40.671573, "lng": -73.908249}, {"name": "Sara D. Roosevelt Park", "lat": 40.720424, "lng": -73.992258}, {"name": "Westbourne Playground", "lat": 40.608274, "lng": -73.764664}, {"name": "Gravesend Park", "lat": 40.623518, "lng": -73.984746}, {"name": "Edenwald Playground", "lat": 40.884029, "lng": -73.845125}, {"name": "Forest Park", "lat": 40.696026, "lng": -73.866434}, {"name": "First Park", "lat": 40.723499, "lng": -73.989295}, {"name": "Railroad Playground", "lat": 40.649242, "lng": -73.913999}, {"name": "Van Voorhees Playground", "lat": 40.68968, "lng": -73.999363}, {"name": "Bronx Park", "lat": 40.852961, "lng": -73.870229}, {"name": "Central Park", "lat": 40.794185, "lng": -73.952734}, {"name": "Red Hook Recreation Area", "lat": 40.672382, "lng": -74.004045}, {"name": "Flushing Meadows Corona Park", "lat": 40.733513, "lng": -73.837183}, {"name": "Pena Herrera Playground", "lat": 40.649492, "lng": -74.012169}, {"name": "East River Playground", "lat": 40.789183, "lng": -73.93789}, {"name": "Devoe Park", "lat": 40.863494, "lng": -73.905509}, {"name": "Van Cortlandt Park", "lat": 40.907748, "lng": -73.89536}, {"name": "Baisley Pond Park", "lat": 40.684565, "lng": -73.786177}, {"name": "Riverside Park South", "lat": 40.780775, "lng": -73.987752}, {"name": "Park Of The Americas", "lat": 40.748605, "lng": -73.86202}, {"name": "Taylor Playground", "lat": 40.839001, "lng": -73.866293}, {"name": "Oakland Gardens", "lat": 40.753855, "lng": -73.759641}, {"name": "Alfred E. Smith Playground", "lat": 40.710259, "lng": -73.997886}, {"name": "Bedford Playground", "lat": 40.708355, "lng": -73.96383}, {"name": "Carver Playground", "lat": 40.680435, "lng": -73.920455}, {"name": "St. John's Park", "lat": 40.674155, "lng": -73.934589}, {"name": "Ferry Point Park", "lat": 40.820661, "lng": -73.825993}, {"name": "Forest Park", "lat": 40.698396, "lng": -73.858391}, {"name": "J. Hood Wright Park", "lat": 40.845769, "lng": -73.940793}, {"name": "John V. Lindsay East River Park", "lat": 40.717194, "lng": -73.974288}, {"name": "Lost Battalion Hall Recreation Center", "lat": 40.731804, "lng": -73.865513}, {"name": "Pelham Bay Park", "lat": 40.866412, "lng": -73.794146}, {"name": "Slope Park Playground", "lat": 40.661177, "lng": -73.989764}, {"name": "Cunningham Park", "lat": 40.735696, "lng": -73.770263}, {"name": "Prospect Park", "lat": 40.665569, "lng": -73.971586}, {"name": "Forest Park", "lat": 40.698816, "lng": -73.857467}, {"name": "Alley Pond Park", "lat": 40.758812, "lng": -73.753808}, {"name": "Ocean Breeze Park", "lat": 40.583077, "lng": -74.075188}, {"name": "Macombs Dam Park", "lat": 40.828292, "lng": -73.92788}, {"name": "Soundview Park", "lat": 40.817577, "lng": -73.878815}, {"name": "Flushing Meadows Corona Park", "lat": 40.751408, "lng": -73.833778}, {"name": "Emerald Playground", "lat": 40.730842, "lng": -73.805953}, {"name": "Stockton Playground", "lat": 40.69749, "lng": -73.948882}, {"name": "Randall's Island Park", "lat": 40.793955, "lng": -73.921164}, {"name": "Flushing Meadows Corona Park", "lat": 40.746248, "lng": -73.850447}, {"name": "Alley Pond Park", "lat": 40.741424, "lng": -73.739914}, {"name": "Willets Point Playground", "lat": 40.783773, "lng": -73.796652}, {"name": "Lieutenant John H. Martinson Playground", "lat": 40.537069, "lng": -74.162652}, {"name": "Riverside Park", "lat": 40.803037, "lng": -73.970074}, {"name": "Highbridge Park", "lat": 40.831624, "lng": -73.940161}, {"name": "Broad Channel Park", "lat": 40.600794, "lng": -73.819743}, {"name": "Fort Totten Park", "lat": 40.793049, "lng": -73.776753}, {"name": "Maria Hernandez Park", "lat": 40.703207, "lng": -73.92359}, {"name": "Forest Park", "lat": 40.702706, "lng": -73.867186}, {"name": "Prospect Park", "lat": 40.657283, "lng": -73.964002}, {"name": "Delphin H. Greene Playground", "lat": 40.684581, "lng": -73.728681}, {"name": "Canarsie Park", "lat": 40.628802, "lng": -73.896209}, {"name": "Morgan Playground", "lat": 40.832282, "lng": -73.9074}, {"name": "Bildersee Playground", "lat": 40.63591, "lng": -73.912162}, {"name": "Raymond Bush Playground", "lat": 40.686601, "lng": -73.939146}, {"name": "Union Square Park", "lat": 40.735564, "lng": -73.990786}, {"name": "Flushing Meadows Corona Park", "lat": 40.750338, "lng": -73.836694}, {"name": "Roy Wilkins Recreation Center", "lat": 40.685761, "lng": -73.769994}, {"name": "Prospect Park", "lat": 40.660772, "lng": -73.973859}, {"name": "Galileo Playground", "lat": 40.848634, "lng": -73.915673}, {"name": "Kissena Corridor Park", "lat": 40.749871, "lng": -73.822989}, {"name": "Jackie Robinson Park", "lat": 40.824673, "lng": -73.942261}, {"name": "Joseph C. Sauer Park", "lat": 40.728163, "lng": -73.979385}, {"name": "Maurice A FitzGerald Playground", "lat": 40.690241, "lng": -73.839589}, {"name": "Battery Park City", "lat": 40.704719, "lng": -74.017973}, {"name": "Bellaire Playground", "lat": 40.721491, "lng": -73.757909}, {"name": "Marine Park", "lat": 40.608258, "lng": -73.93618}, {"name": "LaGuardia Landing Lights", "lat": 40.76224, "lng": -73.890017}, {"name": "Powell Playground", "lat": 40.67132, "lng": -73.904786}, {"name": "McCarren Park", "lat": 40.721771, "lng": -73.954973}, {"name": "Commodore Barry Park", "lat": 40.697852, "lng": -73.977727}, {"name": "Gravesend Park", "lat": 40.623441, "lng": -73.982913}, {"name": "Cypress Hills Playground", "lat": 40.670114, "lng": -73.871166}, {"name": "Midland Playground", "lat": 40.574852, "lng": -74.098375}, {"name": "Virginia Park", "lat": 40.83356, "lng": -73.86171}, {"name": "Tompkins Square Park", "lat": 40.726641, "lng": -73.982543}, {"name": "Belmont Playground", "lat": 40.850056, "lng": -73.888012}, {"name": "Rosemary's Playground", "lat": 40.704439, "lng": -73.904605}, {"name": "Coney Island Beach & Boardwalk", "lat": 40.573911, "lng": -73.971589}, {"name": "Flushing Meadows Corona Park", "lat": 40.745493, "lng": -73.845951}, {"name": "Emerald Playground", "lat": 40.731346, "lng": -73.806077}, {"name": "Bridge Park", "lat": 40.848868, "lng": -73.925126}, {"name": "Central Park", "lat": 40.769104, "lng": -73.974625}, {"name": "Steeplechase Park", "lat": 40.572852, "lng": -73.984106}, {"name": "Crotona Park", "lat": 40.836922, "lng": -73.894649}, {"name": "McKinley Park", "lat": 40.625205, "lng": -74.01763}, {"name": "Brooklyn Botanic Garden", "lat": 40.664806, "lng": -73.961898}, {"name": "South Pacific Playground", "lat": 40.675898, "lng": -73.920609}, {"name": "Flushing Meadows Corona Park", "lat": 40.732671, "lng": -73.837889}, {"name": "Riverside Park", "lat": 40.783828, "lng": -73.986352}, {"name": "Hunter's Point South Park", "lat": 40.739452, "lng": -73.962076}, {"name": "Frank Principe Park", "lat": 40.728163, "lng": -73.905777}, {"name": "Wagner Houses Pool", "lat": 40.801768, "lng": -73.933001}, {"name": "Thomas Jefferson Park", "lat": 40.792325, "lng": -73.936122}, {"name": "Monsignor Crawford Field", "lat": 40.614752, "lng": -73.915874}, {"name": "Dyker Beach Park", "lat": 40.604693, "lng": -74.020114}, {"name": "Forest Park", "lat": 40.707601, "lng": -73.851131}, {"name": "Penn Triangle", "lat": 40.700677, "lng": -73.960889}, {"name": "Bushwick Playground", "lat": 40.701844, "lng": -73.939596}, {"name": "Gilbert Ramirez Park", "lat": 40.706009, "lng": -73.934573}, {"name": "Vincent F. Albano Jr. Playground", "lat": 40.741959, "lng": -73.978617}, {"name": "Ethan Allen Playground", "lat": 40.655778, "lng": -73.886815}, {"name": "Prospect Park", "lat": 40.66124, "lng": -73.973568}, {"name": "Playground 103 CIII", "lat": 40.78726, "lng": -73.938938}, {"name": "Inwood Hill Park", "lat": 40.874529, "lng": -73.920041}, {"name": "Prospect Park", "lat": 40.671921, "lng": -73.970069}, {"name": "McCarren Park", "lat": 40.720588, "lng": -73.953821}, {"name": "Kelly Park Playground", "lat": 40.604315, "lng": -73.957095}, {"name": "Carl Schurz Park", "lat": 40.775702, "lng": -73.943903}, {"name": "Fort Tryon Park", "lat": 40.859029, "lng": -73.934789}, {"name": "Francis Lewis Park", "lat": 40.79646, "lng": -73.824775}, {"name": "Carmansville Playground", "lat": 40.829172, "lng": -73.94433}, {"name": "General Hart Playground", "lat": 40.748689, "lng": -73.89718}, {"name": "Coney Island Beach & Boardwalk", "lat": 40.572186, "lng": -73.988172}, {"name": "Bushwick Playground", "lat": 40.701611, "lng": -73.939376}, {"name": "St. Catherine's Park", "lat": 40.765175, "lng": -73.958853}, {"name": "Manhattan Beach Park", "lat": 40.576569, "lng": -73.945391}, {"name": "Central Park", "lat": 40.776161, "lng": -73.975488}, {"name": "St. Mary's Park", "lat": 40.812653, "lng": -73.913481}, {"name": "Dyker Beach Park", "lat": 40.606373, "lng": -74.016927}, {"name": "Coney Island Beach & Boardwalk", "lat": 40.575402, "lng": -73.956068}, {"name": "Grant Park", "lat": 40.83782, "lng": -73.912335}, {"name": "Pelham Bay Park", "lat": 40.869484, "lng": -73.791144}, {"name": "Rev Lena Irons Unity Park", "lat": 40.830991, "lng": -73.906862}, {"name": "Lindower Park", "lat": 40.612402, "lng": -73.910983}, {"name": "Mafera Park", "lat": 40.707551, "lng": -73.891771}, {"name": "Hinton Park", "lat": 40.756723, "lng": -73.855112}, {"name": "Kissena Corridor Park", "lat": 40.744695, "lng": -73.787682}, {"name": "Riverside Park", "lat": 40.793368, "lng": -73.977997}, {"name": "Wingate Park", "lat": 40.658021, "lng": -73.943511}, {"name": "Van Dyke Playground", "lat": 40.664246, "lng": -73.903823}, {"name": "Rockaway Beach Boardwalk", "lat": 40.58328, "lng": -73.815341}, {"name": "Parade Ground", "lat": 40.648963, "lng": -73.969907}, {"name": "Wolfe's Pond Park", "lat": 40.517379, "lng": -74.190986}, {"name": "Lyons Pool", "lat": 40.637536, "lng": -74.074754}, {"name": "Wakefield Playground", "lat": 40.902272, "lng": -73.853916}, {"name": "Evergreen Playground", "lat": 40.686218, "lng": -73.910856}, {"name": "Van Cortlandt Park", "lat": 40.890609, "lng": -73.897479}, {"name": "Central Park", "lat": 40.797062, "lng": -73.951457}, {"name": "Rockaway Beach", "lat": 40.577941, "lng": -73.835231}, {"name": "Prospect Park", "lat": 40.665364, "lng": -73.965469}, {"name": "Prospect Park", "lat": 40.652232, "lng": -73.971868}, {"name": "Harris Park", "lat": 40.875751, "lng": -73.893474}, {"name": "Seward Park", "lat": 40.714542, "lng": -73.989797}, {"name": "Castlewood Playground", "lat": 40.749715, "lng": -73.720855}, {"name": "Hendrick I. Lott House", "lat": 40.610593, "lng": -73.932504}, {"name": "Marx Brothers Playground", "lat": 40.784388, "lng": -73.946298}, {"name": "Thomas Paine Park", "lat": 40.714829, "lng": -74.002704}, {"name": "Harris Park", "lat": 40.877117, "lng": -73.892526}, {"name": "Williamsbridge Oval", "lat": 40.877696, "lng": -73.877967}, {"name": "Colonel David Marcus Playground", "lat": 40.610018, "lng": -73.969023}, {"name": "Inwood Hill Park", "lat": 40.871093, "lng": -73.921646}, {"name": "Cambria Playground", "lat": 40.68948, "lng": -73.743175}, {"name": "Marcus Garvey Park", "lat": 40.803413, "lng": -73.942679}, {"name": "Centreville Playground", "lat": 40.670493, "lng": -73.83928}, {"name": "Mother Cabrini Park", "lat": 40.684325, "lng": -74.005118}, {"name": "Flushing Meadows Corona Park", "lat": 40.743106, "lng": -73.848905}, {"name": "Hunts Point Riverside Park", "lat": 40.817842, "lng": -73.881552}, {"name": "Juniper Valley Park", "lat": 40.720995, "lng": -73.880513}, {"name": "Chelsea Park", "lat": 40.749839, "lng": -74.00109}, {"name": "Prospect Park", "lat": 40.663396, "lng": -73.977091}, {"name": "Queens Valley Playground", "lat": 40.721778, "lng": -73.823857}, {"name": "Abigail Playground", "lat": 40.817311, "lng": -73.904718}, {"name": "Flushing Fields", "lat": 40.774274, "lng": -73.817309}, {"name": "Grove Hill Playground", "lat": 40.819833, "lng": -73.908885}, {"name": "Sunset Park", "lat": 40.647572, "lng": -74.004537}, {"name": "Sara D. Roosevelt Park", "lat": 40.722536, "lng": -73.990968}, {"name": "St. James Park", "lat": 40.865488, "lng": -73.898379}, {"name": "Von Briesen Park", "lat": 40.607076, "lng": -74.060425}, {"name": "Mathews-Palmer Playground", "lat": 40.761207, "lng": -73.992943}, {"name": "Cherry Clinton Playground", "lat": 40.7114, "lng": -73.986474}, {"name": "Franklin D. Roosevelt Boardwalk and Beach", "lat": 40.579648, "lng": -74.076109}, {"name": "Blue Heron Park", "lat": 40.530889, "lng": -74.177809}, {"name": "Herman Dolgon Playground", "lat": 40.598005, "lng": -73.940532}, {"name": "Tappen Park", "lat": 40.626798, "lng": -74.076633}, {"name": "Crotona Park", "lat": 40.837264, "lng": -73.894588}, {"name": "Marine Park", "lat": 40.603871, "lng": -73.934204}, {"name": "Faber Pool and Park", "lat": 40.641057, "lng": -74.135743}, {"name": "McLaughlin Park", "lat": 40.696615, "lng": -73.986311}, {"name": "Haffen Park", "lat": 40.873469, "lng": -73.839276}, {"name": "Washington Square Park", "lat": 40.730316, "lng": -73.997656}, {"name": "Lefferts Playground", "lat": 40.665661, "lng": -73.821563}, {"name": "Mathews-Palmer Playground", "lat": 40.761372, "lng": -73.99257}, {"name": "Rufus King Park", "lat": 40.703881, "lng": -73.804844}, {"name": "Booker T. Washington Playground", "lat": 40.800948, "lng": -73.963282}, {"name": "Manhattan Beach Park", "lat": 40.576757, "lng": -73.942974}, {"name": "Silver Lake Park", "lat": 40.628076, "lng": -74.098967}, {"name": "Brooklyn Bridge Park", "lat": 40.692269, "lng": -74.000954}, {"name": "Calvert Vaux Park", "lat": 40.586013, "lng": -73.992727}, {"name": "Beach 17 Playground", "lat": 40.594793, "lng": -73.74756}, {"name": "Central Park", "lat": 40.777294, "lng": -73.963933}, {"name": "Veterans Grove", "lat": 40.742755, "lng": -73.877592}, {"name": "Jackie Robinson Park", "lat": 40.827887, "lng": -73.939809}, {"name": "Conference House Park", "lat": 40.502286, "lng": -74.251743}, {"name": "Kissena Park", "lat": 40.745865, "lng": -73.810891}, {"name": "St. Mary's Park", "lat": 40.811468, "lng": -73.914103}, {"name": "Sara D. Roosevelt Park", "lat": 40.716719, "lng": -73.994081}, {"name": "Heckscher Playground", "lat": 40.695005, "lng": -73.918284}, {"name": "Rockaway Beach and Boardwalk", "lat": 40.591437, "lng": -73.775203}, {"name": "Aqueduct Walk", "lat": 40.851088, "lng": -73.914435}, {"name": "Continental Army Plaza", "lat": 40.710757, "lng": -73.960362}, {"name": "Flushing Meadows Corona Park", "lat": 40.749511, "lng": -73.83628}, {"name": "Harris Park", "lat": 40.875241, "lng": -73.892568}, {"name": "Baisley Pond Park", "lat": 40.676987, "lng": -73.786577}, {"name": "Parade Ground", "lat": 40.651089, "lng": -73.968444}, {"name": "Tompkins Square Park", "lat": 40.726435, "lng": -73.980843}, {"name": "Happy Warrior Playground", "lat": 40.795292, "lng": -73.968852}, {"name": "Playground Ninety", "lat": 40.757446, "lng": -73.878422}, {"name": "De Witt Clinton Park", "lat": 40.768485, "lng": -73.994233}, {"name": "Christopher J. Igneri Playground", "lat": 40.608732, "lng": -74.119429}, {"name": "Challenge Playground", "lat": 40.756343, "lng": -73.72809}, {"name": "Flushing Meadows Corona Park", "lat": 40.741916, "lng": -73.849525}, {"name": "Bush Terminal Park", "lat": 40.653359, "lng": -74.019562}, {"name": "Manhattan Beach Park", "lat": 40.576762, "lng": -73.942941}, {"name": "Alexander's Alley", "lat": 40.811543, "lng": -73.923197}, {"name": "Asser Levy Playground", "lat": 40.736143, "lng": -73.975668}, {"name": "Bloomingdale Playground", "lat": 40.799227, "lng": -73.966378}, {"name": "Seton Park", "lat": 40.885764, "lng": -73.916979}, {"name": "Bennett Park", "lat": 40.853029, "lng": -73.937866}, {"name": "Crotona Park", "lat": 40.840503, "lng": -73.897757}, {"name": "Haffen Park", "lat": 40.874323, "lng": -73.838761}, {"name": "North Shore Esplanade", "lat": 40.648211, "lng": -74.083839}, {"name": "Van Cortlandt Park", "lat": 40.891078, "lng": -73.892606}, {"name": "Frederick B. Judge Playground", "lat": 40.683942, "lng": -73.808617}, {"name": "Hollis Playground", "lat": 40.706445, "lng": -73.753151}, {"name": "Printers Park", "lat": 40.82404, "lng": -73.89074}, {"name": "Police Officer Edward Byrne Park", "lat": 40.667369, "lng": -73.809193}, {"name": "A.R.R.O.W. Field House", "lat": 40.755877, "lng": -73.926402}, {"name": "John Hancock Playground", "lat": 40.682272, "lng": -73.95479}, {"name": "Franklin D. Roosevelt Boardwalk and Beach", "lat": 40.578459, "lng": -74.076961}, {"name": "Central Park", "lat": 40.780872, "lng": -73.9616}, {"name": "Beach 9 Playground", "lat": 40.595138, "lng": -73.746083}, {"name": "Kissena Park", "lat": 40.746621, "lng": -73.812838}, {"name": "Frederick Johnson Playground", "lat": 40.824469, "lng": -73.934693}, {"name": "Brevoort Playground", "lat": 40.680645, "lng": -73.922696}, {"name": "P.O. Serrano Playground", "lat": 40.823573, "lng": -73.850469}, {"name": "Coney Island Beach & Boardwalk", "lat": 40.572907, "lng": -73.981214}, {"name": "Crotona Park", "lat": 40.835287, "lng": -73.896309}, {"name": "Van Alst Playground", "lat": 40.770607, "lng": -73.928078}, {"name": "Pelham Bay Park", "lat": 40.848881, "lng": -73.82223}, {"name": "Grover Cleveland Playground", "lat": 40.711012, "lng": -73.911403}, {"name": "Central Park", "lat": 40.766073, "lng": -73.973511}, {"name": "Central Park", "lat": 40.7973, "lng": -73.9591}, {"name": "Bush Terminal Park", "lat": 40.65239, "lng": -74.020093}, {"name": "NYC AIDS Memorial Park at St. Vincent\u2019s Triangle", "lat": 40.737343, "lng": -74.001226}, {"name": "Lyons Pool", "lat": 40.637536, "lng": -74.074754}, {"name": "Russell Pedersen Playground", "lat": 40.626133, "lng": -74.036432}, {"name": "Mellett Playground", "lat": 40.597205, "lng": -73.957375}, {"name": "The Battery", "lat": 40.703954, "lng": -74.014715}, {"name": "Percy E. Sutton Playground", "lat": 40.825302, "lng": -73.934843}, {"name": "Helen Marshall Playground", "lat": 40.765606, "lng": -73.871445}, {"name": "Williamsbridge Oval", "lat": 40.878018, "lng": -73.875931}, {"name": "Fermi Playground", "lat": 40.700775, "lng": -73.928026}, {"name": "Brooklyn Botanic Garden", "lat": 40.66722, "lng": -73.964318}, {"name": "Hoffman Park", "lat": 40.733088, "lng": -73.872357}, {"name": "City Hall Park", "lat": 40.712831, "lng": -74.005154}, {"name": "Al Qui\u00f1ones Playground", "lat": 40.81498, "lng": -73.902024}, {"name": "Langston Hughes Playground", "lat": 40.812238, "lng": -73.946983}, {"name": "Red Hook Recreation Area", "lat": 40.673369, "lng": -74.003785}, {"name": "Marine Park", "lat": 40.600357, "lng": -73.914213}, {"name": "St. Vartan Park", "lat": 40.744946, "lng": -73.973257}, {"name": "Sunset Park", "lat": 40.646921, "lng": -74.002121}, {"name": "Friends Field", "lat": 40.617932, "lng": -73.973001}, {"name": "Sol Lain Plgd", "lat": 40.714308, "lng": -73.983608}, {"name": "Arsenal West", "lat": 40.769783, "lng": -73.98292}, {"name": "Highland Park", "lat": 40.683911, "lng": -73.885969}, {"name": "London Planetree Playground", "lat": 40.686436, "lng": -73.853533}, {"name": "Playground Eighty LXXX", "lat": 40.744791, "lng": -73.709519}, {"name": "Astoria Park", "lat": 40.778958, "lng": -73.921957}, {"name": "Breukelen Ballfields", "lat": 40.653682, "lng": -73.893998}, {"name": "John Paul Jones Park", "lat": 40.61089, "lng": -74.032901}, {"name": "Sohncke Square", "lat": 40.745505, "lng": -73.906189}, {"name": "Seaside Playground", "lat": 40.580923, "lng": -73.830748}, {"name": "Rockaway Beach Boardwalk", "lat": 40.582963, "lng": -73.817548}, {"name": "Astoria Park", "lat": 40.778336, "lng": -73.922723}, {"name": "John V. Lindsay East River Park", "lat": 40.719685, "lng": -73.974398}, {"name": "Ferry Point Park", "lat": 40.815079, "lng": -73.837958}, {"name": "Charlie's Place", "lat": 40.699334, "lng": -73.946393}, {"name": "Blue Playground", "lat": 40.711007, "lng": -73.955045}, {"name": "Alley Athletic Playground", "lat": 40.739517, "lng": -73.736077}, {"name": "Merriam Playground", "lat": 40.838939, "lng": -73.926411}, {"name": "Paerdegat Park", "lat": 40.637034, "lng": -73.938139}, {"name": "Walker Park", "lat": 40.643717, "lng": -74.108828}, {"name": "Highbridge Park", "lat": 40.841523, "lng": -73.935289}, {"name": "Harold Schneiderman Playground", "lat": 40.664649, "lng": -73.850639}, {"name": "Goble Playground", "lat": 40.843714, "lng": -73.917302}, {"name": "Forest Park", "lat": 40.700822, "lng": -73.858115}, {"name": "Ogden Plimpton Playground", "lat": 40.84179, "lng": -73.923774}, {"name": "Central Park", "lat": 40.79122, "lng": -73.959944}, {"name": "Bartlett Playground", "lat": 40.700835, "lng": -73.945952}, {"name": "Betsy Head Park", "lat": 40.662372, "lng": -73.912861}, {"name": "The Painter's Playground", "lat": 40.720724, "lng": -73.859571}, {"name": "Corona Golf Playground", "lat": 40.747441, "lng": -73.85455}, {"name": "Forest Park", "lat": 40.697399, "lng": -73.856648}, {"name": "West Harlem Piers", "lat": 40.818557, "lng": -73.961329}, {"name": "Manhattan Beach Park", "lat": 40.577257, "lng": -73.94674}, {"name": "Martin Luther King Jr. Playground", "lat": 40.667366, "lng": -73.89024}, {"name": "Dry Dock Playground", "lat": 40.725616, "lng": -73.975319}, {"name": "Fort Totten Park", "lat": 40.792228, "lng": -73.779669}, {"name": "Dimattina Playground", "lat": 40.679645, "lng": -74.003062}, {"name": "Walter Gladwin Park", "lat": 40.844333, "lng": -73.894715}, {"name": "High Rock Park", "lat": 40.58262, "lng": -74.123029}, {"name": "Brookfield Park", "lat": 40.561886, "lng": -74.160949}, {"name": "Eleanor Roosevelt Playground", "lat": 40.692709, "lng": -73.935822}, {"name": "Soundview Park", "lat": 40.818507, "lng": -73.877352}, {"name": "Catharine Turner Richardson Park", "lat": 40.768275, "lng": -73.74714}, {"name": "Alfred E. Smith Playground", "lat": 40.710185, "lng": -73.997636}, {"name": "Bath Beach Park", "lat": 40.601911, "lng": -74.011092}, {"name": "Hart Playground", "lat": 40.774057, "lng": -73.819403}, {"name": "Eastchester Playground", "lat": 40.869809, "lng": -73.852607}, {"name": "Breininger Park", "lat": 40.725626, "lng": -73.729035}, {"name": "Central Park", "lat": 40.782216, "lng": -73.968238}, {"name": "Frank Principe Park", "lat": 40.727505, "lng": -73.905948}, {"name": "Margaret I. Carman Green - Weeping Beech", "lat": 40.763459, "lng": -73.824804}, {"name": "Coney Island Beach & Boardwalk", "lat": 40.574001, "lng": -73.971478}, {"name": "Lemon Creek Park", "lat": 40.511048, "lng": -74.210042}, {"name": "Rose Hill Park", "lat": 40.86207, "lng": -73.890356}, {"name": "Bronx Park", "lat": 40.851641, "lng": -73.870238}, {"name": "Poppenhusen Playground", "lat": 40.78116, "lng": -73.844416}, {"name": "Central Park", "lat": 40.784734, "lng": -73.967261}, {"name": "J. Hood Wright Park", "lat": 40.846444, "lng": -73.940763}, {"name": "Grand Playground", "lat": 40.855985, "lng": -73.907378}, {"name": "Whole Foods PAA", "lat": 40.675031, "lng": -73.990218}, {"name": "Bayview Playground", "lat": 40.634776, "lng": -73.887415}, {"name": "Crispus Attucks Playground", "lat": 40.681624, "lng": -73.959027}, {"name": "Alley Pond Park", "lat": 40.741878, "lng": -73.74721}, {"name": "Estella Diggs Park", "lat": 40.828854, "lng": -73.905873}, {"name": "St. Mary's Park", "lat": 40.811468, "lng": -73.914103}, {"name": "Metropolitan Recreation Center", "lat": 40.715012, "lng": -73.960317}, {"name": "Randall's Island Park", "lat": 40.799257, "lng": -73.923266}, {"name": "Fort Tryon Park", "lat": 40.865206, "lng": -73.929432}, {"name": "Bill Rainey Park", "lat": 40.819598, "lng": -73.897006}, {"name": "Park Slope Playground", "lat": 40.676769, "lng": -73.978534}, {"name": "Sakura Park", "lat": 40.813517, "lng": -73.962004}, {"name": "Pelham Bay Park", "lat": 40.864791, "lng": -73.794672}, {"name": "Brownsville Playground", "lat": 40.656495, "lng": -73.902484}, {"name": "Central Park", "lat": 40.791096, "lng": -73.959969}, {"name": "Flushing Meadows Corona Park", "lat": 40.745571, "lng": -73.84431}, {"name": "Flushing Meadows Corona Park", "lat": 40.760747, "lng": -73.856267}, {"name": "Cunningham Park", "lat": 40.729756, "lng": -73.776769}, {"name": "Linnaeus Park", "lat": 40.753865, "lng": -73.751401}, {"name": "The Battery", "lat": 40.702604, "lng": -74.015968}, {"name": "College Point Park", "lat": 40.785929, "lng": -73.845903}, {"name": "Linden Park", "lat": 40.65929, "lng": -73.886281}, {"name": "Morningside Park", "lat": 40.803001, "lng": -73.958779}, {"name": "Belmont Playground", "lat": 40.849919, "lng": -73.887259}, {"name": "Linwood Playground", "lat": 40.666216, "lng": -73.880377}, {"name": "Joyce Kilmer Park", "lat": 40.829559, "lng": -73.921661}, {"name": "Midland Field", "lat": 40.576707, "lng": -74.098986}, {"name": "Williamsbridge Oval", "lat": 40.876656, "lng": -73.878571}, {"name": "Lincoln Terrace / Arthur S. Somers Park", "lat": 40.666657, "lng": -73.925553}, {"name": "Highland Park", "lat": 40.683994, "lng": -73.8881}, {"name": "Washington Skate Park", "lat": 40.672929, "lng": -73.985855}, {"name": "Sgt. William Dougherty Playground", "lat": 40.723562, "lng": -73.936952}, {"name": "Van Cortlandt Park", "lat": 40.903526, "lng": -73.894766}, {"name": "Randall's Island Park", "lat": 40.79288, "lng": -73.924708}, {"name": "River Avenue Parks", "lat": 40.825486, "lng": -73.926874}, {"name": "Chester Playground", "lat": 40.66899, "lng": -73.911925}, {"name": "Flushing Meadows Corona Park", "lat": 40.74353, "lng": -73.842346}, {"name": "Rockaway Beach and Boardwalk", "lat": 40.589048, "lng": -73.788518}, {"name": "Corporal John A. Seravalli Playground", "lat": 40.738941, "lng": -74.004627}, {"name": "Central Park", "lat": 40.772086, "lng": -73.967714}, {"name": "Parade Ground", "lat": 40.650486, "lng": -73.967314}, {"name": "Torsney Playground", "lat": 40.74726, "lng": -73.921765}, {"name": "Crocheron Park", "lat": 40.770072, "lng": -73.770251}, {"name": "Central Park", "lat": 40.769139, "lng": -73.973832}, {"name": "Baisley Pond Park", "lat": 40.668991, "lng": -73.788025}, {"name": "Locust Manor Playground", "lat": 40.686114, "lng": -73.755882}, {"name": "Pelham Bay Park", "lat": 40.868587, "lng": -73.792601}, {"name": "Bridge Park 3", "lat": 40.700451, "lng": -73.984873}, {"name": "Marie Curie Playground", "lat": 40.757085, "lng": -73.771578}, {"name": "Big Bush Playground", "lat": 40.739216, "lng": -73.902389}, {"name": "Prospect Park", "lat": 40.662459, "lng": -73.965426}, {"name": "Coney Island Boat Basin", "lat": 40.58309, "lng": -73.990174}, {"name": "Travers Park", "lat": 40.754216, "lng": -73.889294}, {"name": "De Witt Clinton Park", "lat": 40.768096, "lng": -73.993248}, {"name": "Shore Park and Parkway", "lat": 40.632001, "lng": -74.038635}, {"name": "Daniel M. O'Connell Playground", "lat": 40.700046, "lng": -73.758113}, {"name": "Vesuvio Playground", "lat": 40.725569, "lng": -74.00244}, {"name": "WNYC Transmitter Park", "lat": 40.730101, "lng": -73.960635}, {"name": "Adam Yauch Park", "lat": 40.691703, "lng": -73.998694}, {"name": "Albert J. Parham Playground", "lat": 40.69057, "lng": -73.970791}, {"name": "Beach 30th Street Playground", "lat": 40.591887, "lng": -73.763666}, {"name": "Columbus Park", "lat": 40.715755, "lng": -74.000245}, {"name": "Canarsie Park", "lat": 40.628961, "lng": -73.895972}, {"name": "Little Bay Park", "lat": 40.788561, "lng": -73.791389}, {"name": "Rockaway Beach and Boardwalk", "lat": 40.592597, "lng": -73.753536}, {"name": "Westerleigh Park", "lat": 40.619843, "lng": -74.134663}, {"name": "Washington Park", "lat": 40.673541, "lng": -73.985708}, {"name": "Riverside Park", "lat": 40.793368, "lng": -73.977997}, {"name": "Cunningham Park", "lat": 40.739335, "lng": -73.765314}, {"name": "Markham Playground", "lat": 40.62415, "lng": -74.14578}, {"name": "Wards Island Park", "lat": 40.782306, "lng": -73.925864}, {"name": "Bronx Park", "lat": 40.869247, "lng": -73.876506}, {"name": "Randall's Island Park", "lat": 40.799292, "lng": -73.923588}, {"name": "Winthrop Playground", "lat": 40.656507, "lng": -73.954759}, {"name": "Whitey Ford Field", "lat": 40.77723, "lng": -73.935117}, {"name": "Linden Park", "lat": 40.658242, "lng": -73.887302}, {"name": "John V. Lindsay East River Park", "lat": 40.724191, "lng": -73.972897}, {"name": "Playground Seventy Five", "lat": 40.726334, "lng": -73.80837}, {"name": "Conch Playground", "lat": 40.59608, "lng": -73.781167}, {"name": "Pelham Bay Park", "lat": 40.851077, "lng": -73.819883}, {"name": "Msgr. McGolrick Park", "lat": 40.725277, "lng": -73.943359}, {"name": "Dr. Green Playground", "lat": 40.666935, "lng": -73.906643}, {"name": "Idlewild Park", "lat": 40.657091, "lng": -73.759344}, {"name": "East River Waterfront Esplanade", "lat": 40.704837, "lng": -74.005052}, {"name": "Sixteen Sycamores Playground", "lat": 40.68674, "lng": -73.980706}, {"name": "Flushing Meadows Corona Park", "lat": 40.751368, "lng": -73.848349}, {"name": "Flushing Meadows Corona Park", "lat": 40.747649, "lng": -73.847029}, {"name": "Loreto Playground", "lat": 40.8486, "lng": -73.85193}, {"name": "Hamilton Fish Park", "lat": 40.720242, "lng": -73.981157}, {"name": "Drew Playground", "lat": 40.833156, "lng": -73.903293}, {"name": "Washington Park", "lat": 40.855815, "lng": -73.893617}, {"name": "Clove Lakes Park", "lat": 40.618252, "lng": -74.1071}, {"name": "Central Park", "lat": 40.796601, "lng": -73.954048}, {"name": "Half-Nelson Playground", "lat": 40.846766, "lng": -73.919245}, {"name": "Central Park", "lat": 40.791608, "lng": -73.95552}, {"name": "Surf Playground", "lat": 40.573637, "lng": -73.992657}, {"name": "Kissena Corridor Park", "lat": 40.748916, "lng": -73.822226}, {"name": "Lincoln Terrace / Arthur S. Somers Park", "lat": 40.66628, "lng": -73.928116}, {"name": "Wayanda Park", "lat": 40.710691, "lng": -73.739669}, {"name": "Prospect Park", "lat": 40.661604, "lng": -73.967964}, {"name": "Pelham Bay Park", "lat": 40.864497, "lng": -73.79472}, {"name": "Cobble Hill Park", "lat": 40.688318, "lng": -73.996455}, {"name": "McGuire Fields", "lat": 40.619412, "lng": -73.900159}, {"name": "John Jay Park", "lat": 40.769538, "lng": -73.949318}, {"name": "Franklin D. Roosevelt Boardwalk and Beach", "lat": 40.573287, "lng": -74.084519}, {"name": "Juniper Valley Park", "lat": 40.720957, "lng": -73.877558}, {"name": "Red Hook Recreation Area", "lat": 40.672414, "lng": -74.006848}, {"name": "Flushing Meadows Corona Park", "lat": 40.744803, "lng": -73.838756}, {"name": "Harry Chapin Playground", "lat": 40.700561, "lng": -73.995147}, {"name": "Latimer Playground", "lat": 40.696326, "lng": -73.786558}, {"name": "Newport Playground", "lat": 40.660949, "lng": -73.90687}, {"name": "Clove Lakes Park", "lat": 40.617949, "lng": -74.105597}, {"name": "Francis Lewis Park", "lat": 40.795896, "lng": -73.825202}, {"name": "Bushwick Playground", "lat": 40.70169, "lng": -73.939244},